<?xml version="1.0" encoding="UTF-8"?>
<kml xmlns="http://www.opengis.net/kml/2.2">
<Document>
	<name>Judo Clubs in Hampshire, UK</name>    
  
    
	
  		<Placemark>
    		<name>Alresford Judo Club</name>
    		<description>Judo Club</description>
    		<Point>
      			<coordinates>-1.165786,51.090113,0</coordinates>
    		</Point>
  		</Placemark>
  		
  		<Placemark>
    		<name>Alton Judo Club</name>
    		<description>Judo Club</description>
    		<Point>
      			<coordinates>-0.9937477111816406,51.155016274716324</coordinates>
    		</Point>
  		</Placemark>
  		
  		<Placemark>
    		<name>Applemore Judokwai</name>
    		<description>Judo Club</description>
    		<Point>
      			<coordinates>-1.4016151428222656,50.85895194112559</coordinates>
    		</Point>
  		</Placemark>
  		
  		<Placemark>
    		<name>AWE Judo Club</name>
    		<description>Judo Club</description>
    		<Point>
      			<coordinates>-1.141204833984375,51.363179810266594</coordinates>
    		</Point>
  		</Placemark>
  		  		
  		<Placemark>
    		<name>Basingstoke Judo Club</name>
    		<description>Judo Club</description>
    		<Point>
      			<coordinates>-1.1163997650146484,51.27394421143647</coordinates>
    		</Point>
  		</Placemark>
  		      		  		
  		<Placemark>
    		<name>Braemore School Judo Club</name>
    		<description>Judo Club</description>
    		<Point>
      			<coordinates>-1.7885398864746094,50.92727577667011</coordinates>
    		</Point>
  		</Placemark>
  		  
 		      		  		
  		<Placemark>
    		<name>Brighton Hill Judo Club</name>
    		<description>Judo Club</description>
    		<Point>
      			<coordinates>-1.113417148590088,51.24484548430178</coordinates>
    		</Point>
  		</Placemark>
  		
  		<Placemark>
    		<name>Cosham CA Judo Club</name>
    		<description>Judo Club</description>
    		<Point>
      			<coordinates>-1.0682058334350586,50.844456794368675</coordinates>
    		</Point>
  		</Placemark>  		
  		
  		<Placemark>
    		<name>Court Lane Judo Club</name>
    		<description>Judo Club</description>
    		<Point>
      			<coordinates>-1.0976028442382812,50.854617416100446</coordinates>
    		</Point>
  		</Placemark>
 
  		<Placemark>
    		<name>Crofton Judo Club</name>
    		<description>Judo Club</description>
    		<Point>
      			<coordinates>-1.20849609375,50.92035050944008</coordinates>
    		</Point>
  		</Placemark>  		  
  
  		<Placemark>
    		<name>Devonshire Infants</name>
    		<description>Judo Club</description>
    		<Point>
      			<coordinates>-1.208496,50.920351</coordinates>
    		</Point>
  		</Placemark>  	
  		  
  		<Placemark>
    		<name>Eastleigh Judokwai</name>
    		<description>Judo Club</description>
    		<Point>
      			<coordinates>-1.3698577880859375,50.9709677364145</coordinates>
    		</Point>
  		</Placemark> 	  
  		
  		  		  
  		<Placemark>
    		<name>Fernhurst Junior School (CSJ)</name>
    		<description>Judo Club</description>
    		<Point>
      			<coordinates>-1.208496,51.039667</coordinates>
    		</Point>
  		</Placemark> 
  		  		  		  
  		<Placemark>
    		<name>Fleet and Frogmore Judo Club</name>
    		<description>Judo Club</description>
    		<Point>
      			<coordinates>-0.8257341384887695,51.34390975335246</coordinates>
    		</Point>
  		</Placemark> 
  		  		  		  		  
  		<Placemark>
    		<name>Fleming Park Judo Club</name>
    		<description>Judo Club</description>
    		<Point>
      			<coordinates>-1.3698577880859375,50.9709677364145</coordinates>
    		</Point>
  		</Placemark> 
  		  		  		  		  		  
  		<Placemark>
    		<name>Fort Purbrook Judo Club</name>
    		<description>Judo Club</description>
    		<Point>
      			<coordinates>-1.037135124206543,50.85301895832509</coordinates>
    		</Point>
  		</Placemark> 
  		  		  		  		  		  		  
  		<Placemark>
    		<name>Gosport Judo Club</name>
    		<description>Judo Club</description>
    		<Point>
      			<coordinates>-1.137385368347168,50.799249092009966</coordinates>
    		</Point>
  		</Placemark> 
  		  		  		  		  		  		  		  
  		<Placemark>
    		<name>Guernsey Judo</name>
    		<description>Judo Club</description>
    		<Point>
      			<coordinates>-2.585906982421875,49.453842594330716</coordinates>
    		</Point>
  		</Placemark>
  		  		  		  		  		  		  		  		  
  		<Placemark>
    		<name>Guernsey Judo Club (Beechwood)</name>
    		<description>Judo Club</description>
    		<Point>
      			<coordinates>-2.585906982421875,49.453842594330716</coordinates>
    		</Point>
  		</Placemark>
  		  		  		  		  		  		  		  		  		  
  		<Placemark>
    		<name>Guernsey Judo Club (Beechwood)</name>
    		<description>Judo Club</description>
    		<Point>
      			<coordinates>-2.585906982421875,49.453842594330716</coordinates>
    		</Point>
  		</Placemark>
  		  		  		  		  		  		  		  		  		  		  
  		<Placemark>
    		<name>Havant Judo Kwai</name>
    		<description>Judo Club</description>
    		<Point>
      			<coordinates>-1.0010433197021484,50.87292803971143</coordinates>
    		</Point>
  		</Placemark>
  		  		  		  		  		  		  		  		  		  		  		  
  		<Placemark>
    		<name>HMS Collingwood Judo Club</name>
    		<description>Judo Club</description>
    		<Point>
      			<coordinates>-1.1880683898925781,50.8345785488684</coordinates>
    		</Point>
  		</Placemark>
  		  		  		  		  		  		  		  		  		  		  		  		  
  		<Placemark>
    		<name>HMS Sultan Judo Club</name>
    		<description>Judo Club</description>
    		<Point>
      			<coordinates>-1.1624908447265625,50.807426320016894</coordinates>
    		</Point>
  		</Placemark>
  		  		  		  		  		  		  		  		  		  		  		  		  		  
  		<Placemark>
    		<name>Holbrook Judo Club</name>
    		<description>Judo Club</description>
    		<Point>
      			<coordinates>-1.174819,50.939913</coordinates>
    		</Point>
  		</Placemark>
  		  		  		  		  		  		  		  		  		  		  		  		  		  		  
  		<Placemark>
    		<name>Holbrook (Sarisbury Green) Judo Club</name>
    		<description>Judo Club</description>
    		<Point>
      			<coordinates>-1.2876319885253906,50.8726030617489</coordinates>
    		</Point>
  		</Placemark>
  		  		  		  		  		  		  		  		  		  		  		  		  		  		  		  
  		<Placemark>
    		<name>Jersey Judo Club</name>
    		<description>Judo Club</description>
    		<Point>
      			<coordinates>-2.108001708984375,49.192137684651</coordinates>
    		</Point>
  		</Placemark>
  		  		  		  		  		  		  		  		  		  		  		  		  		  		  		  		  
  		<Placemark>
    		<name>Kiaisan Judo Club</name>
    		<description>Judo Club</description>
    		<Point>
      			<coordinates>-0.8456254005432129,51.27891077340508</coordinates>
    		</Point>
  		</Placemark>
  		  		  		  		  		  		  		  		  		  		  		  		  		  		  		  		  		  
  		<Placemark>
    		<name>Kings Court School</name>
    		<description>Judo Club</description>
    		<Point>
      			<coordinates>-1.01348876953125,50.95496653774908</coordinates>
    		</Point>
  		</Placemark>
  		  		  		  		  		  		  		  		  		  		  		  		  		  		  		  		  		  		  
  		<Placemark>
    		<name>Langstone School</name>
    		<description>Judo Club</description>
    		<Point>
      			<coordinates>-1.0682916641235352,50.80650424981126</coordinates>
    		</Point>
  		</Placemark>
  		  		  		  		  		  		  		  		  		  		  		  		  		  		  		  		  		  		  		  
  		<Placemark>
    		<name>Matsumachi Judo Club</name>
    		<description>Judo Club</description>
    		<Point>
      			<coordinates>-1.767125129699707,50.73498844042214</coordinates>
    		</Point>
  		</Placemark>
  		  		  		  		  		  		  		  		  		  		  		  		  		  		  		  		  		  		  		  		  
  		<Placemark>
    		<name>Meridian Judo Club</name>
    		<description>Judo Club</description>
    		<Point>
      			<coordinates>-0.9855937957763672,50.85591781591019</coordinates>
    		</Point>
  		</Placemark>
  		  		  		  		  		  		  		  		  		  		  		  		  		  		  		  		  		  		  		  		  		  
  		<Placemark>
    		<name>New Forest Park Judo Club</name>
    		<description>Judo Club</description>
    		<Point>
      			<coordinates>-1.5163707733154297,50.92903398120456</coordinates>
    		</Point>
  		</Placemark>
  		  		  		  		  		  		  		  		  		  		  		  		  		  		  		  		  		  		  		  		  		  		  
  		<Placemark>
    		<name>Oaklands Judo Club</name>
    		<description>Judo Club</description>
    		<Point>
      			<coordinates>-1.4556884765625,50.9627515930537</coordinates>
    		</Point>
  		</Placemark>
  		  		  		  		  		  		  		  		  		  		  		  		  		  		  		  		  		  		  		  		  		  		  		  
  		<Placemark>
    		<name>Judo Club Osaka</name>
    		<description>
    			
    			http://judoclubosaka.org.uk
    				
    		</description>
    		<Point>
      			<coordinates>-0.7391738891601562,51.23698687887106</coordinates>
    		</Point>
  		</Placemark>
  		  		  		  		  		  		  		  		  		  		  		  		  		  		  		  		  		  		  		  		  		  		  		  		  
  		<Placemark>
    		<name>Judo Club Osaka Hawley</name>
    		<description>Judo Club</description>
    		<Point>
      			<coordinates>-0.7395172119140625,51.248163159055906</coordinates>
    		</Point>
  		</Placemark>
  		  		  		  		  		  		  		  		  		  		  		  		  		  		  		  		  		  		  		  		  		  		  		  		  		  
  		<Placemark>
    		<name>Paul Jones School of Judo</name>
    		<description>Judo Club</description>
    		<Point>
      			<coordinates>-1.0732269287109375,51.258168461302915</coordinates>
    		</Point>
  		</Placemark>
  		  		  		  		  		  		  		  		  		  		  		  		  		  		  		  		  		  		  		  		  		  		  		  		  		  		  
  		<Placemark>
    		<name>Portsmouth Judo Club</name>
    		<description>Judo Club</description>
    		<Point>
      			<coordinates>-1.037131,50.853071</coordinates>
    		</Point>
  		</Placemark>
  		  		  		  		  		  		  		  		  		  		  		  		  		  		  		  		  		  		  		  		  		  		  		  		  		  		  		  
  		<Placemark>
    		<name>Portsmouth Grammar School Judo Club</name>
    		<description>Judo Club</description>
    		<Point>
      			<coordinates>-1.0738706588745117,50.83456499702682</coordinates>
    		</Point>
  		</Placemark>
  		  		  		  		  		  		  		  		  		  		  		  		  		  		  		  		  		  		  		  		  		  		  		  		  		  		  		  		  
  		<Placemark>
    		<name>Premier School of Judo</name>
    		<description>Judo Club</description>
    		<Point>
      			<coordinates>-1.3046076893806458,50.91178718166596</coordinates>
    		</Point>
  		</Placemark>
  		  		  		  		  		  		  		  		  		  		  		  		  		  		  		  		  		  		  		  		  		  		  		  		  		  		  		  		  		  
  		<Placemark>
    		<name>Ringwood and Fordingbridge Judo Club</name>
    		<description>Judo Club</description>
    		<Point>
      			<coordinates>-1.780805,50.850054</coordinates>
    		</Point>
  		</Placemark>
  		  		  		  		  		  		  		  		  		  		  		  		  		  		  		  		  		  		  		  		  		  		  		  		  		  		  		  		  		  		  
  		<Placemark>
    		<name>River Park Judo Club</name>
    		<description>Judo Club</description>
    		<Point>
      			<coordinates>-1.3105058670043945,51.06726375142283</coordinates>
    		</Point>
  		</Placemark>
  		  		  		  		  		  		  		  		  		  		  		  		  		  		  		  		  		  		  		  		  		  		  		  		  		  		  		  		  		  		  		  
  		<Placemark>
    		<name>Ryde Judo Club</name>
    		<description>Judo Club</description>
    		<Point>
      			<coordinates>-1.161966,50.729914</coordinates>
    		</Point>
  		</Placemark>
  		  		  		  		  		  		  		  		  		  		  		  		  		  		  		  		  		  		  		  		  		  		  		  		  		  		  		  		  		  		  		  		  
  		<Placemark>
    		<name>Scorpion Judo Club</name>
    		<description>Judo Club</description>
    		<Point>
      			<coordinates>-1.580911,51.136165</coordinates>
    		</Point>
  		</Placemark>
  		  		  		  		  		  		  		  		  		  		  		  		  		  		  		  		  		  		  		  		  		  		  		  		  		  		  		  		  		  		  		  		  		  
  		<Placemark>
    		<name>Southampton University J.C.</name>
    		<description>Judo Club</description>
    		<Point>
      			<coordinates>-1.39635,50.93416</coordinates>
    		</Point>
  		</Placemark>
  		  		  		  		  		  		  		  		  		  		  		  		  		  		  		  		  		  		  		  		  		  		  		  		  		  		  		  		  		  		  		  		  		  		  
  		<Placemark>
    		<name>Southern Judokan (Cowplain)</name>
    		<description>Judo Club</description>
    		<Point>
      			<coordinates>-1.0149049758911133,50.89458812657207</coordinates>
    		</Point>
  		</Placemark>
  		  		  		  		  		  		  		  		  		  		  		  		  		  		  		  		  		  		  		  		  		  		  		  		  		  		  		  		  		  		  		  		  		  		  		  
  		<Placemark>
    		<name>Southern Judokan (Bourne)</name>
    		<description>Judo Club</description>
    		<Point>
      			<coordinates>-0.912387,50.851522</coordinates>
    		</Point>
  		</Placemark>
  		  		  		  		  		  		  		  		  		  		  		  		  		  		  		  		  		  		  		  		  		  		  		  		  		  		  		  		  		  		  		  		  		  		  		  		  
  		<Placemark>
    		<name>Southern Judokan (Rowlands Castle)</name>
    		<description>Judo Club</description>
    		<Point>
      			<coordinates>-0.9658098220825195,50.88254094607358</coordinates>
    		</Point>
  		</Placemark>
  		  		  		  		  		  		  		  		  		  		  		  		  		  		  		  		  		  		  		  		  		  		  		  		  		  		  		  		  		  		  		  		  		  		  		  		  		  
  		<Placemark>
    		<name>Stamshaw School Judo Club</name>
    		<description>Judo Club</description>
    		<Point>
      			<coordinates>-1.0840415954589844,50.82240741025529</coordinates>
    		</Point>
  		</Placemark>
  		  		  		  		  		  		  		  		  		  		  		  		  		  		  		  		  		  		  		  		  		  		  		  		  		  		  		  		  		  		  		  		  		  		  		  		  		  		  
  		<Placemark>
    		<name>Summit Judo Club</name>
    		<description>Judo Club</description>
    		<Point>
      			<coordinates>-1.101427674293518,51.29582996620736</coordinates>
    		</Point>
  		</Placemark>
  		  		  		  		  		  		  		  		  		  		  		  		  		  		  		  		  		  		  		  		  		  		  		  		  		  		  		  		  		  		  		  		  		  		  		  		  		  		  		  
  		<Placemark>
    		<name>Torakan Judo Club</name>
    		<description>Judo Club</description>
    		<Point>
      			<coordinates>-2.193691,49.18438</coordinates>
    		</Point>
  		</Placemark>
  		  		  		  		  		  		  		  		  		  		  		  		  		  		  		  		  		  		  		  		  		  		  		  		  		  		  		  		  		  		  		  		  		  		  		  		  		  		  		  		  
  		<Placemark>
    		<name>Wimbourne School</name>
    		<description>Judo Club</description>
    		<Point>
      			<coordinates>-1.0619831085205078,50.792969419922684</coordinates>
    		</Point>
  		</Placemark>
  		  		  		  		  		  		  		  		  		  		  		  		  		  		  		  		  		  		  		  		  		  		  		  		  		  		  		  		  		  		  		  		  		  		  		  		  		  		  		  		  		  
  		<Placemark>
    		<name>Winchester Judo Club</name>
    		<description>Judo Club</description>
    		<Point>
      			<coordinates>-1.3153553009033203,51.06872001827074</coordinates>
    		</Point>
  		</Placemark>
  		  		  		  		  		  		  		  		  		  		  		  		  		  		  		  		  		  		  		  		  		  		  		  		  		  		  		  		  		  		  		  		  		  		  		  		  		  		  		  		  		  		  
  		<Placemark>
    		<name>Winchester College Judo Club</name>
    		<description>Judo Club</description>
    		<Point>
      			<coordinates>-1.3126516342163086,51.05836334731389</coordinates>
    		</Point>
  		</Placemark>
  		
  		
  </Document>		
</kml>
