<?xml version="1.0" encoding="UTF-8"?>
    <kml xmlns="http://www.opengis.net/kml/2.2">
	<!-- The data created by DojoList by
	<a xmlns:cc="http://creativecommons.org/ns#"
	href="http://github.com/lancew/DojoList"
	property="cc:attributionName"
	rel="cc:attributionURL">Lance Wicks</a>
	 is licensed under a <a rel="license"
	 href="http://creativecommons.org/licenses/by-nc-sa/2.0/uk/">
	 Creative Commons Attribution-Noncommercial-Share Alike 2.0
	 UK: England &amp; Wales License</a>.
	 Some data imported from www.judoworldmap.com by
	 Ulrich Wisser under a Creative Commons NC-SA License. -->
    <Document>
    <name>Dojo List</name><Placemark><name>test_dojo</name><description><![CDATA[<a href="http://dev.dojolist/dojo/test_dojo">View Details</a>]]></description><Point><coordinates>1.4833333,42.5666667</coordinates></Point></Placemark><Placemark><name>ASHINGTON JUDO CLUB</name><description><![CDATA[<a href="http://dev.dojolist/dojo/ASHINGTON JUDO CLUB">View Details</a>]]></description><Point><coordinates> -1.5477589, 55.1806033</coordinates></Point></Placemark><Placemark><name>ASHINGTON LEISURE CENTRE J C</name><description><![CDATA[<a href="http://dev.dojolist/dojo/ASHINGTON LEISURE CENTRE J C">View Details</a>]]></description><Point><coordinates>,</coordinates></Point></Placemark><Placemark><name>B.B. JUDO CLUB</name><description><![CDATA[<a href="http://dev.dojolist/dojo/B.B. JUDO CLUB">View Details</a>]]></description><Point><coordinates> -1.4885784, 54.7904090</coordinates></Point></Placemark><Placemark><name>BEARPARK JUDO CLUB</name><description><![CDATA[<a href="http://dev.dojolist/dojo/BEARPARK JUDO CLUB">View Details</a>]]></description><Point><coordinates> -1.6275909, 54.7821261</coordinates></Point></Placemark><Placemark><name>BILLINGHAM JUDO CLUB</name><description><![CDATA[<a href="http://dev.dojolist/dojo/BILLINGHAM JUDO CLUB">View Details</a>]]></description><Point><coordinates> -1.2879782, 54.6069655</coordinates></Point></Placemark><Placemark><name>CARLISLE - KOBAYASHI</name><description><![CDATA[<a href="http://dev.dojolist/dojo/CARLISLE - KOBAYASHI">View Details</a>]]></description><Point><coordinates> -2.9669624, 54.8874655</coordinates></Point></Placemark><Placemark><name>CLUB NE JUDO</name><description><![CDATA[<a href="http://dev.dojolist/dojo/CLUB NE JUDO">View Details</a>]]></description><Point><coordinates> -1.6825259, 54.9860932</coordinates></Point></Placemark><Placemark><name>CRAWCROOK JUDO CLUB</name><description><![CDATA[<a href="http://dev.dojolist/dojo/CRAWCROOK JUDO CLUB">View Details</a>]]></description><Point><coordinates> -1.7811720, 54.9699915</coordinates></Point></Placemark><Placemark><name>DOLPHIN JUDO CLUB</name><description><![CDATA[<a href="http://dev.dojolist/dojo/DOLPHIN JUDO CLUB">View Details</a>]]></description><Point><coordinates> -1.3273311, 54.5600717</coordinates></Point></Placemark><Placemark><name>DURHAM JUDO KWAI</name><description><![CDATA[<a href="http://dev.dojolist/dojo/DURHAM JUDO KWAI">View Details</a>]]></description><Point><coordinates> -1.7471004, 54.7137226</coordinates></Point></Placemark><Placemark><name>DURHAM UNIVERSITY JUDO CLUB</name><description><![CDATA[<a href="http://dev.dojolist/dojo/DURHAM UNIVERSITY JUDO CLUB">View Details</a>]]></description><Point><coordinates> -1.5643078, 54.7778387</coordinates></Point></Placemark><Placemark><name>ESTON GRANGE JUDO CLUB</name><description><![CDATA[<a href="http://dev.dojolist/dojo/ESTON GRANGE JUDO CLUB">View Details</a>]]></description><Point><coordinates> -1.1638942, 54.5690737</coordinates></Point></Placemark><Placemark><name>FORDLEY JUDO KWAI</name><description><![CDATA[<a href="http://dev.dojolist/dojo/FORDLEY JUDO KWAI">View Details</a>]]></description><Point><coordinates> -1.5187131, 55.1293436</coordinates></Point></Placemark><Placemark><name>GATESHEAD JUDO CLUB</name><description><![CDATA[<a href="http://dev.dojolist/dojo/GATESHEAD JUDO CLUB">View Details</a>]]></description><Point><coordinates>,</coordinates></Point></Placemark><Placemark><name>GREAT AYTON JUDO CLUB</name><description><![CDATA[<a href="http://dev.dojolist/dojo/GREAT AYTON JUDO CLUB">View Details</a>]]></description><Point><coordinates> -1.1943342, 54.4709337</coordinates></Point></Placemark><Placemark><name>GREENFIELD JUDO CLUB</name><description><![CDATA[<a href="http://dev.dojolist/dojo/GREENFIELD JUDO CLUB">View Details</a>]]></description><Point><coordinates> -1.6010292, 54.6196885</coordinates></Point></Placemark><Placemark><name>HALTWHISTLE JUDO CLUB</name><description><![CDATA[<a href="http://dev.dojolist/dojo/HALTWHISTLE JUDO CLUB">View Details</a>]]></description><Point><coordinates> -2.4657363, 54.9705622</coordinates></Point></Placemark><Placemark><name>HAYDON BRIDGE JUDO CLUB</name><description><![CDATA[<a href="http://dev.dojolist/dojo/HAYDON BRIDGE JUDO CLUB">View Details</a>]]></description><Point><coordinates> -2.2536668, 54.9754852</coordinates></Point></Placemark><Placemark><name>HEXHAM JUDO CLUB</name><description><![CDATA[<a href="http://dev.dojolist/dojo/HEXHAM JUDO CLUB">View Details</a>]]></description><Point><coordinates> -2.0966677, 54.9728631</coordinates></Point></Placemark><Placemark><name>KODOKWAI JUDO CLUB</name><description><![CDATA[<a href="http://dev.dojolist/dojo/KODOKWAI JUDO CLUB">View Details</a>]]></description><Point><coordinates> -1.4437054, 54.9767068</coordinates></Point></Placemark><Placemark><name>KODOKWAI JUNIORS JUDO CLUB</name><description><![CDATA[<a href="http://dev.dojolist/dojo/KODOKWAI JUNIORS JUDO CLUB">View Details</a>]]></description><Point><coordinates>,</coordinates></Point></Placemark><Placemark><name>KOIZUMI JUDO CLUB</name><description><![CDATA[<a href="http://dev.dojolist/dojo/KOIZUMI JUDO CLUB">View Details</a>]]></description><Point><coordinates> -1.5985766, 54.5393462</coordinates></Point></Placemark><Placemark><name>LAKESIDE JUDO CLUB (REN-SEI-KAN)</name><description><![CDATA[<a href="http://dev.dojolist/dojo/LAKESIDE JUDO CLUB (REN-SEI-KAN)">View Details</a>]]></description><Point><coordinates> -1.5729472, 55.0288608</coordinates></Point></Placemark><Placemark><name>LAMBTON JUDOKWAI</name><description><![CDATA[<a href="http://dev.dojolist/dojo/LAMBTON JUDOKWAI">View Details</a>]]></description><Point><coordinates> -1.3982439, 54.9084286</coordinates></Point></Placemark><Placemark><name>NEWBURN JUDO CLUB</name><description><![CDATA[<a href="http://dev.dojolist/dojo/NEWBURN JUDO CLUB">View Details</a>]]></description><Point><coordinates> -1.7454408, 54.9834463</coordinates></Point></Placemark><Placemark><name>NEWCASTLE UNIVERSITY JUDO CLUB</name><description><![CDATA[<a href="http://dev.dojolist/dojo/NEWCASTLE UNIVERSITY JUDO CLUB">View Details</a>]]></description><Point><coordinates> -1.6147153, 54.9807832</coordinates></Point></Placemark><Placemark><name>NEWTON AYCLIFFE JUDO CLUB</name><description><![CDATA[<a href="http://dev.dojolist/dojo/NEWTON AYCLIFFE JUDO CLUB">View Details</a>]]></description><Point><coordinates> -1.5742440, 54.6191211</coordinates></Point></Placemark><Placemark><name>NORTHUMBRIA UNIVERSITY JUDO CLUB</name><description><![CDATA[<a href="http://dev.dojolist/dojo/NORTHUMBRIA UNIVERSITY JUDO CLUB">View Details</a>]]></description><Point><coordinates> -1.6269186, 54.9817821</coordinates></Point></Placemark><Placemark><name>PARKS JUDO CLUB</name><description><![CDATA[<a href="http://dev.dojolist/dojo/PARKS JUDO CLUB">View Details</a>]]></description><Point><coordinates> -1.4569110, 55.0017586</coordinates></Point></Placemark><Placemark><name>PETERLEE JUDO CLUB</name><description><![CDATA[<a href="http://dev.dojolist/dojo/PETERLEE JUDO CLUB">View Details</a>]]></description><Point><coordinates> -1.3364277, 54.7568174</coordinates></Point></Placemark><Placemark><name>RAINBOW JUDO CLUB</name><description><![CDATA[<a href="http://dev.dojolist/dojo/RAINBOW JUDO CLUB">View Details</a>]]></description><Point><coordinates> -1.2166626, 54.5246035</coordinates></Point></Placemark><Placemark><name>REDCAR JUDO CLUB</name><description><![CDATA[<a href="http://dev.dojolist/dojo/REDCAR JUDO CLUB">View Details</a>]]></description><Point><coordinates> -1.0524828, 54.6070416</coordinates></Point></Placemark><Placemark><name>REN SEI KAN JUDO CLUB</name><description><![CDATA[<a href="http://dev.dojolist/dojo/REN SEI KAN JUDO CLUB">View Details</a>]]></description><Point><coordinates> -1.5729472, 55.0288608</coordinates></Point></Placemark><Placemark><name>RY JU KWAI CUMBRIA</name><description><![CDATA[<a href="http://dev.dojolist/dojo/RY JU KWAI CUMBRIA">View Details</a>]]></description><Point><coordinates> -3.5397970, 54.6459740</coordinates></Point></Placemark><Placemark><name>SALTBURN BUDOKAN</name><description><![CDATA[<a href="http://dev.dojolist/dojo/SALTBURN BUDOKAN">View Details</a>]]></description><Point><coordinates> -0.9812472, 54.5792409</coordinates></Point></Placemark><Placemark><name>SOUTH SHIELDS JUDO CLUB</name><description><![CDATA[<a href="http://dev.dojolist/dojo/SOUTH SHIELDS JUDO CLUB">View Details</a>]]></description><Point><coordinates> -1.4203375, 54.9686460</coordinates></Point></Placemark><Placemark><name>SOUTHLANDS JUDO CLUB</name><description><![CDATA[<a href="http://dev.dojolist/dojo/SOUTHLANDS JUDO CLUB">View Details</a>]]></description><Point><coordinates> -1.1906371, 54.5526833</coordinates></Point></Placemark><Placemark><name>SPECIAL OLYMPICS SUNDERLAND</name><description><![CDATA[<a href="http://dev.dojolist/dojo/SPECIAL OLYMPICS SUNDERLAND">View Details</a>]]></description><Point><coordinates>,</coordinates></Point></Placemark><Placemark><name>SPENNYMOOR JUDO CLUB</name><description><![CDATA[<a href="http://dev.dojolist/dojo/SPENNYMOOR JUDO CLUB">View Details</a>]]></description><Point><coordinates> -1.6140547, 54.6948149</coordinates></Point></Placemark><Placemark><name>STANLEY JUDO CLUB</name><description><![CDATA[<a href="http://dev.dojolist/dojo/STANLEY JUDO CLUB">View Details</a>]]></description><Point><coordinates> -1.6876114, 54.8723487</coordinates></Point></Placemark><Placemark><name>STOCKTON SPORTS CENTRE JUDO C</name><description><![CDATA[<a href="http://dev.dojolist/dojo/STOCKTON SPORTS CENTRE JUDO C">View Details</a>]]></description><Point><coordinates> -1.3080744, 54.5749355</coordinates></Point></Placemark><Placemark><name>TERMINUS SHOGUN</name><description><![CDATA[<a href="http://dev.dojolist/dojo/TERMINUS SHOGUN">View Details</a>]]></description><Point><coordinates> -1.4497099, 55.0093376</coordinates></Point></Placemark><Placemark><name>THE PARKS JUDO CLUB (TYNE)</name><description><![CDATA[<a href="http://dev.dojolist/dojo/THE PARKS JUDO CLUB (TYNE)">View Details</a>]]></description><Point><coordinates> -1.4321530, 55.0169320</coordinates></Point></Placemark><Placemark><name>THE WHITEHAVEN JUDO CLUB</name><description><![CDATA[<a href="http://dev.dojolist/dojo/THE WHITEHAVEN JUDO CLUB">View Details</a>]]></description><Point><coordinates> -3.5835940, 54.5430792</coordinates></Point></Placemark><Placemark><name>WASHINGTON JUDO CLUB</name><description><![CDATA[<a href="http://dev.dojolist/dojo/WASHINGTON JUDO CLUB">View Details</a>]]></description><Point><coordinates> -122.5395451, 45.9484454</coordinates></Point></Placemark></Document></kml>