<?xml version="1.0" encoding="UTF-8"?>
    <kml xmlns="http://www.opengis.net/kml/2.2">
    <!-- The data created by DojoList by
    <a xmlns:cc="http://creativecommons.org/ns#"
    href="http://github.com/lancew/DojoList"
    property="cc:attributionName"
    rel="cc:attributionURL">Lance Wicks</a>
    is licensed under a
    <a rel="license"
    href="http://creativecommons.org/licenses/by-nc-sa/2.0/uk/">
    Creative Commons Attribution-Noncommercial-Share Alike 2.0
    UK: England &amp; Wales License</a>. -->
    <Document>
    <name>Dojo List</name><Placemark><name>Alresford Judo Club</name><description><![CDATA[<a href="http://dev.dojolist/dojo/Alresford Judo Club">View Details</a>]]></description><Point><coordinates>-1.159517,51.08527</coordinates></Point></Placemark><Placemark><name>Alton Judo Club</name><description><![CDATA[<a href="http://dev.dojolist/dojo/Alton Judo Club">View Details</a>]]></description><Point><coordinates>-0.9942,51.13735</coordinates></Point></Placemark><Placemark><name>Applemore Judokwai</name><description><![CDATA[<a href="http://dev.dojolist/dojo/Applemore Judokwai">View Details</a>]]></description><Point><coordinates>-1.3660118,50.8636769</coordinates></Point></Placemark><Placemark><name>AWE Judo Club</name><description><![CDATA[<a href="http://dev.dojolist/dojo/AWE Judo Club">View Details</a>]]></description><Point><coordinates>-1.1537209,51.3544589</coordinates></Point></Placemark><Placemark><name>Basingstoke Judo Club</name><description><![CDATA[<a href="http://dev.dojolist/dojo/Basingstoke Judo Club">View Details</a>]]></description><Point><coordinates>-1.147398,51.2732846</coordinates></Point></Placemark><Placemark><name>Breamore School Judo CLub</name><description><![CDATA[<a href="http://dev.dojolist/dojo/Breamore School Judo CLub">View Details</a>]]></description><Point><coordinates>-1.7884699,50.9286499</coordinates></Point></Placemark><Placemark><name>Brighton Hill Judo Club</name><description><![CDATA[<a href="http://dev.dojolist/dojo/Brighton Hill Judo Club">View Details</a>]]></description><Point><coordinates>-1.1192596,51.2395196</coordinates></Point></Placemark><Placemark><name>Cosham CA Judo Club</name><description><![CDATA[<a href="http://dev.dojolist/dojo/Cosham CA Judo Club">View Details</a>]]></description><Point><coordinates>-1.0744455,50.8485036</coordinates></Point></Placemark><Placemark><name>Court Lane Judo Club Cosham Portsmouth Hants </name><description><![CDATA[<a href="http://dev.dojolist/dojo/Court Lane Judo Club Cosham Portsmouth Hants ">View Details</a>]]></description><Point><coordinates>-1.0363021,50.8462461</coordinates></Point></Placemark><Placemark><name>Crofton Judo Club</name><description><![CDATA[<a href="http://dev.dojolist/dojo/Crofton Judo Club">View Details</a>]]></description><Point><coordinates>-76.6874671,39.0017772</coordinates></Point></Placemark><Placemark><name>Devonshire Infants</name><description><![CDATA[<a href="http://dev.dojolist/dojo/Devonshire Infants">View Details</a>]]></description><Point><coordinates>-1.071084,50.7908403</coordinates></Point></Placemark><Placemark><name>Eastleigh Judokwai</name><description><![CDATA[<a href="http://dev.dojolist/dojo/Eastleigh Judokwai">View Details</a>]]></description><Point><coordinates>-1.369626,50.966672</coordinates></Point></Placemark><Placemark><name>Fernhurst Junior School (CSJ)</name><description><![CDATA[<a href="http://dev.dojolist/dojo/Fernhurst Junior School (CSJ)">View Details</a>]]></description><Point><coordinates>-1.071307,50.790317</coordinates></Point></Placemark><Placemark><name>Fleet and Frogmore Judo Club</name><description><![CDATA[<a href="http://dev.dojolist/dojo/Fleet and Frogmore Judo Club">View Details</a>]]></description><Point><coordinates>-0.813267,51.33672</coordinates></Point></Placemark><Placemark><name>Fleming Park Judo Club</name><description><![CDATA[<a href="http://dev.dojolist/dojo/Fleming Park Judo Club">View Details</a>]]></description><Point><coordinates>-1.3741026,50.9879376</coordinates></Point></Placemark><Placemark><name>Fort Purbrook Judo Club</name><description><![CDATA[<a href="http://dev.dojolist/dojo/Fort Purbrook Judo Club">View Details</a>]]></description><Point><coordinates>-1.049812,50.8532733</coordinates></Point></Placemark><Placemark><name>Gosport Judokwai</name><description><![CDATA[<a href="http://dev.dojolist/dojo/Gosport Judokwai">View Details</a>]]></description><Point><coordinates>-1.1290701,50.7946636</coordinates></Point></Placemark><Placemark><name>Guernsey Judo</name><description><![CDATA[<a href="http://dev.dojolist/dojo/Guernsey Judo">View Details</a>]]></description><Point><coordinates>-2.585278,49.465691</coordinates></Point></Placemark><Placemark><name>Guernsey Judo Club (Beechwood)</name><description><![CDATA[<a href="http://dev.dojolist/dojo/Guernsey Judo Club (Beechwood)">View Details</a>]]></description><Point><coordinates>-2.5496172,49.4457285</coordinates></Point></Placemark><Placemark><name>Havant Judo Kwai</name><description><![CDATA[<a href="http://dev.dojolist/dojo/Havant Judo Kwai">View Details</a>]]></description><Point><coordinates>-0.9855933,50.8566072</coordinates></Point></Placemark><Placemark><name>Holbrook Judo Club </name><description><![CDATA[<a href="http://dev.dojolist/dojo/Holbrook Judo Club ">View Details</a>]]></description><Point><coordinates>-1.1290701,50.7946636</coordinates></Point></Placemark><Placemark><name>Holbrook (Sarisbury Green) Judo Club </name><description><![CDATA[<a href="http://dev.dojolist/dojo/Holbrook (Sarisbury Green) Judo Club ">View Details</a>]]></description><Point><coordinates>-1.2873586,50.8732661</coordinates></Point></Placemark><Placemark><name>Jersey Judo Club</name><description><![CDATA[<a href="http://dev.dojolist/dojo/Jersey Judo Club">View Details</a>]]></description><Point><coordinates>-2.0570285,49.1741873</coordinates></Point></Placemark><Placemark><name>Kiaisan Judo Club</name><description><![CDATA[<a href="http://dev.dojolist/dojo/Kiaisan Judo Club">View Details</a>]]></description><Point><coordinates>-0.86371,51.27821</coordinates></Point></Placemark><Placemark><name>Kings Court School</name><description><![CDATA[<a href="http://dev.dojolist/dojo/Kings Court School">View Details</a>]]></description><Point><coordinates>-1.0121384,50.9063197</coordinates></Point></Placemark><Placemark><name>Langstone School </name><description><![CDATA[<a href="http://dev.dojolist/dojo/Langstone School ">View Details</a>]]></description><Point><coordinates>-1.057123,50.806408</coordinates></Point></Placemark><Placemark><name>Matsumachi Judo Club</name><description><![CDATA[<a href="http://dev.dojolist/dojo/Matsumachi Judo Club">View Details</a>]]></description><Point><coordinates>-1.7675213,50.7348817</coordinates></Point></Placemark><Placemark><name>Meridian Judo Club</name><description><![CDATA[<a href="http://dev.dojolist/dojo/Meridian Judo Club">View Details</a>]]></description><Point><coordinates>-0.97819,50.829374</coordinates></Point></Placemark><Placemark><name>New Forest Park Judo Club </name><description><![CDATA[<a href="http://dev.dojolist/dojo/New Forest Park Judo Club ">View Details</a>]]></description><Point><coordinates>-1.5267763,50.8877193</coordinates></Point></Placemark><Placemark><name>Oaklands Judo Club</name><description><![CDATA[<a href="http://dev.dojolist/dojo/Oaklands Judo Club">View Details</a>]]></description><Point><coordinates>-1.195136,50.907504</coordinates></Point></Placemark><Placemark><name>Judo Club Osaka</name><description><![CDATA[<a href="http://dev.dojolist/dojo/Judo Club Osaka">View Details</a>]]></description><Point><coordinates>-0.741952,51.238409</coordinates></Point></Placemark><Placemark><name>Judo Club Osaka Hawley</name><description><![CDATA[<a href="http://dev.dojolist/dojo/Judo Club Osaka Hawley">View Details</a>]]></description><Point><coordinates>-0.76233,51.311743</coordinates></Point></Placemark><Placemark><name>Paul Jones School of Judo </name><description><![CDATA[<a href="http://dev.dojolist/dojo/Paul Jones School of Judo ">View Details</a>]]></description><Point><coordinates>-1.071954,51.259141</coordinates></Point></Placemark><Placemark><name>Portsmouth Judo Club</name><description><![CDATA[<a href="http://dev.dojolist/dojo/Portsmouth Judo Club">View Details</a>]]></description><Point><coordinates>-1.0744455,50.8485036</coordinates></Point></Placemark><Placemark><name>Portsmouth Grammar School Judo Club</name><description><![CDATA[<a href="http://dev.dojolist/dojo/Portsmouth Grammar School Judo Club">View Details</a>]]></description><Point><coordinates>-1.1028953,50.78973</coordinates></Point></Placemark><Placemark><name>Premier School of Judo</name><description><![CDATA[<a href="http://dev.dojolist/dojo/Premier School of Judo">View Details</a>]]></description><Point><coordinates>-1.310752,50.90756</coordinates></Point></Placemark><Placemark><name>Priory Judokwai (C.S.J)</name><description><![CDATA[<a href="http://dev.dojolist/dojo/Priory Judokwai (C.S.J)">View Details</a>]]></description><Point><coordinates>-1.075378,50.790801</coordinates></Point></Placemark><Placemark><name>Ringwood and Fordingbridge Judo Club</name><description><![CDATA[<a href="http://dev.dojolist/dojo/Ringwood and Fordingbridge Judo Club">View Details</a>]]></description><Point><coordinates>-1.7823128,50.8307017</coordinates></Point></Placemark><Placemark><name>River Park Judo Club</name><description><![CDATA[<a href="http://dev.dojolist/dojo/River Park Judo Club">View Details</a>]]></description><Point><coordinates>-1.312422,51.067304</coordinates></Point></Placemark><Placemark><name>Ryde Judo Club</name><description><![CDATA[<a href="http://dev.dojolist/dojo/Ryde Judo Club">View Details</a>]]></description><Point><coordinates>-1.161966,50.729914</coordinates></Point></Placemark><Placemark><name>Scorpion Judo Club</name><description><![CDATA[<a href="http://dev.dojolist/dojo/Scorpion Judo Club">View Details</a>]]></description><Point><coordinates>-1.5616608,51.1598698</coordinates></Point></Placemark><Placemark><name>Southampton University J.C</name><description><![CDATA[<a href="http://dev.dojolist/dojo/Southampton University J.C">View Details</a>]]></description><Point><coordinates>-1.4002,50.9307</coordinates></Point></Placemark><Placemark><name>Southern Judokan (Cowplain)</name><description><![CDATA[<a href="http://dev.dojolist/dojo/Southern Judokan (Cowplain)">View Details</a>]]></description><Point><coordinates>-1.014772,50.893469</coordinates></Point></Placemark><Placemark><name>Southern Judokan (Bourne)</name><description><![CDATA[<a href="http://dev.dojolist/dojo/Southern Judokan (Bourne)">View Details</a>]]></description><Point><coordinates>-0.9371971,50.8478106</coordinates></Point></Placemark><Placemark><name>Southern Judokan (Rowlands Castle)</name><description><![CDATA[<a href="http://dev.dojolist/dojo/Southern Judokan (Rowlands Castle)">View Details</a>]]></description><Point><coordinates>-0.965811,50.882137</coordinates></Point></Placemark><Placemark><name>Stamshaw School Judo</name><description><![CDATA[<a href="http://dev.dojolist/dojo/Stamshaw School Judo">View Details</a>]]></description><Point><coordinates>-1.0805774,50.8201965</coordinates></Point></Placemark><Placemark><name>Summit Judo Club</name><description><![CDATA[<a href="http://dev.dojolist/dojo/Summit Judo Club">View Details</a>]]></description><Point><coordinates>-1.0526527,51.2846488</coordinates></Point></Placemark><Placemark><name>Torakan Judo Club</name><description><![CDATA[<a href="http://dev.dojolist/dojo/Torakan Judo Club">View Details</a>]]></description><Point><coordinates>-2.1936913,49.1843798</coordinates></Point></Placemark><Placemark><name>Wimbourne School</name><description><![CDATA[<a href="http://dev.dojolist/dojo/Wimbourne School">View Details</a>]]></description><Point><coordinates>-1.0735694,50.7874037</coordinates></Point></Placemark><Placemark><name>Winchester Judo Club</name><description><![CDATA[<a href="http://dev.dojolist/dojo/Winchester Judo Club">View Details</a>]]></description><Point><coordinates>-1.316494,51.068964</coordinates></Point></Placemark><Placemark><name>Winchester College Judo Club</name><description><![CDATA[<a href="http://dev.dojolist/dojo/Winchester College Judo Club">View Details</a>]]></description><Point><coordinates>-1.312632,51.058442</coordinates></Point></Placemark><Placemark><name></name><description><![CDATA[<a href="http://dev.dojolist/dojo/">View Details</a>]]></description><Point><coordinates>,</coordinates></Point></Placemark><Placemark><name></name><description><![CDATA[<a href="http://dev.dojolist/dojo/">View Details</a>]]></description><Point><coordinates>,</coordinates></Point></Placemark><Placemark><name>test_case_dojo</name><description><![CDATA[<a href="http://dev.dojolist/dojo/test_case_dojo">View Details</a>]]></description><Point><coordinates>1.4833333,42.5666667</coordinates></Point></Placemark><Placemark><name>test_dojo</name><description><![CDATA[<a href="http://dev.dojolist/dojo/test_dojo">View Details</a>]]></description><Point><coordinates>-1.403234,50.904966</coordinates></Point></Placemark></Document></kml>