<?xml version="1.0" encoding="UTF-8"?>
    <kml xmlns="http://www.opengis.net/kml/2.2">
	<!-- The data created by DojoList by
	<a xmlns:cc="http://creativecommons.org/ns#"
	href="http://github.com/lancew/DojoList"
	property="cc:attributionName"
	rel="cc:attributionURL">Lance Wicks</a>
	 is licensed under a <a rel="license"
	 href="http://creativecommons.org/licenses/by-nc-sa/2.0/uk/">
	 Creative Commons Attribution-Noncommercial-Share Alike 2.0
	 UK: England &amp; Wales License</a>.
	 Some data imported from www.judoworldmap.com by 
	 Ulrich Wisser under a Creative Commons NC-SA License. -->
    <Document>
    <name>Dojo List</name><Placemark><name>Alresford Judo Club</name><description><![CDATA[<a href="http://dev.dojolist/dojo/Alresford Judo Club">View Details</a>]]></description><Point><coordinates>-1.159517,51.08527</coordinates></Point></Placemark><Placemark><name>Alton Judo Club</name><description><![CDATA[<a href="http://dev.dojolist/dojo/Alton Judo Club">View Details</a>]]></description><Point><coordinates>-0.9942,51.13735</coordinates></Point></Placemark><Placemark><name>Applemore Judokwai</name><description><![CDATA[<a href="http://dev.dojolist/dojo/Applemore Judokwai">View Details</a>]]></description><Point><coordinates>-1.3660118,50.8636769</coordinates></Point></Placemark><Placemark><name>AWE Judo Club</name><description><![CDATA[<a href="http://dev.dojolist/dojo/AWE Judo Club">View Details</a>]]></description><Point><coordinates>-1.1537209,51.3544589</coordinates></Point></Placemark><Placemark><name>Basingstoke Judo Club</name><description><![CDATA[<a href="http://dev.dojolist/dojo/Basingstoke Judo Club">View Details</a>]]></description><Point><coordinates>-1.147398,51.2732846</coordinates></Point></Placemark><Placemark><name>Breamore School Judo CLub</name><description><![CDATA[<a href="http://dev.dojolist/dojo/Breamore School Judo CLub">View Details</a>]]></description><Point><coordinates>-1.7884699,50.9286499</coordinates></Point></Placemark><Placemark><name>Brighton Hill Judo Club</name><description><![CDATA[<a href="http://dev.dojolist/dojo/Brighton Hill Judo Club">View Details</a>]]></description><Point><coordinates>-1.1192596,51.2395196</coordinates></Point></Placemark><Placemark><name>Cosham CA Judo Club</name><description><![CDATA[<a href="http://dev.dojolist/dojo/Cosham CA Judo Club">View Details</a>]]></description><Point><coordinates>-1.0744455,50.8485036</coordinates></Point></Placemark><Placemark><name>Court Lane Judo Club Cosham Portsmouth Hants </name><description><![CDATA[<a href="http://dev.dojolist/dojo/Court Lane Judo Club Cosham Portsmouth Hants ">View Details</a>]]></description><Point><coordinates>-1.0363021,50.8462461</coordinates></Point></Placemark><Placemark><name>Crofton Judo Club</name><description><![CDATA[<a href="http://dev.dojolist/dojo/Crofton Judo Club">View Details</a>]]></description><Point><coordinates>-76.6874671,39.0017772</coordinates></Point></Placemark><Placemark><name>Devonshire Infants</name><description><![CDATA[<a href="http://dev.dojolist/dojo/Devonshire Infants">View Details</a>]]></description><Point><coordinates>-1.071084,50.7908403</coordinates></Point></Placemark><Placemark><name>Eastleigh Judokwai</name><description><![CDATA[<a href="http://dev.dojolist/dojo/Eastleigh Judokwai">View Details</a>]]></description><Point><coordinates>-1.369626,50.966672</coordinates></Point></Placemark><Placemark><name>Fernhurst Junior School (CSJ)</name><description><![CDATA[<a href="http://dev.dojolist/dojo/Fernhurst Junior School (CSJ)">View Details</a>]]></description><Point><coordinates>-1.071307,50.790317</coordinates></Point></Placemark><Placemark><name>Fleet and Frogmore Judo Club</name><description><![CDATA[<a href="http://dev.dojolist/dojo/Fleet and Frogmore Judo Club">View Details</a>]]></description><Point><coordinates>-0.813267,51.33672</coordinates></Point></Placemark><Placemark><name>Fleming Park Judo Club</name><description><![CDATA[<a href="http://dev.dojolist/dojo/Fleming Park Judo Club">View Details</a>]]></description><Point><coordinates>-1.3741026,50.9879376</coordinates></Point></Placemark><Placemark><name>Fort Purbrook Judo Club</name><description><![CDATA[<a href="http://dev.dojolist/dojo/Fort Purbrook Judo Club">View Details</a>]]></description><Point><coordinates>-1.049812,50.8532733</coordinates></Point></Placemark><Placemark><name>Gosport Judokwai</name><description><![CDATA[<a href="http://dev.dojolist/dojo/Gosport Judokwai">View Details</a>]]></description><Point><coordinates>-1.1290701,50.7946636</coordinates></Point></Placemark><Placemark><name>Guernsey Judo</name><description><![CDATA[<a href="http://dev.dojolist/dojo/Guernsey Judo">View Details</a>]]></description><Point><coordinates>-2.585278,49.465691</coordinates></Point></Placemark><Placemark><name>Guernsey Judo Club (Beechwood)</name><description><![CDATA[<a href="http://dev.dojolist/dojo/Guernsey Judo Club (Beechwood)">View Details</a>]]></description><Point><coordinates>-2.5496172,49.4457285</coordinates></Point></Placemark><Placemark><name>Havant Judo Kwai</name><description><![CDATA[<a href="http://dev.dojolist/dojo/Havant Judo Kwai">View Details</a>]]></description><Point><coordinates>-0.9855933,50.8566072</coordinates></Point></Placemark><Placemark><name>Holbrook Judo Club </name><description><![CDATA[<a href="http://dev.dojolist/dojo/Holbrook Judo Club ">View Details</a>]]></description><Point><coordinates>-1.1290701,50.7946636</coordinates></Point></Placemark><Placemark><name>Holbrook (Sarisbury Green) Judo Club </name><description><![CDATA[<a href="http://dev.dojolist/dojo/Holbrook (Sarisbury Green) Judo Club ">View Details</a>]]></description><Point><coordinates>-1.2873586,50.8732661</coordinates></Point></Placemark><Placemark><name>Jersey Judo Club</name><description><![CDATA[<a href="http://dev.dojolist/dojo/Jersey Judo Club">View Details</a>]]></description><Point><coordinates>-2.0570285,49.1741873</coordinates></Point></Placemark><Placemark><name>Kiaisan Judo Club</name><description><![CDATA[<a href="http://dev.dojolist/dojo/Kiaisan Judo Club">View Details</a>]]></description><Point><coordinates>-0.86371,51.27821</coordinates></Point></Placemark><Placemark><name>Kings Court School</name><description><![CDATA[<a href="http://dev.dojolist/dojo/Kings Court School">View Details</a>]]></description><Point><coordinates>-1.0121384,50.9063197</coordinates></Point></Placemark><Placemark><name>Langstone School </name><description><![CDATA[<a href="http://dev.dojolist/dojo/Langstone School ">View Details</a>]]></description><Point><coordinates>-1.057123,50.806408</coordinates></Point></Placemark><Placemark><name>Matsumachi Judo Club</name><description><![CDATA[<a href="http://dev.dojolist/dojo/Matsumachi Judo Club">View Details</a>]]></description><Point><coordinates>-1.7675213,50.7348817</coordinates></Point></Placemark><Placemark><name>Meridian Judo Club</name><description><![CDATA[<a href="http://dev.dojolist/dojo/Meridian Judo Club">View Details</a>]]></description><Point><coordinates>-0.97819,50.829374</coordinates></Point></Placemark><Placemark><name>New Forest Park Judo Club </name><description><![CDATA[<a href="http://dev.dojolist/dojo/New Forest Park Judo Club ">View Details</a>]]></description><Point><coordinates>-1.5267763,50.8877193</coordinates></Point></Placemark><Placemark><name>Oaklands Judo Club</name><description><![CDATA[<a href="http://dev.dojolist/dojo/Oaklands Judo Club">View Details</a>]]></description><Point><coordinates>-1.195136,50.907504</coordinates></Point></Placemark><Placemark><name>Judo Club Osaka</name><description><![CDATA[<a href="http://dev.dojolist/dojo/Judo Club Osaka">View Details</a>]]></description><Point><coordinates>-0.741952,51.238409</coordinates></Point></Placemark><Placemark><name>Judo Club Osaka Hawley</name><description><![CDATA[<a href="http://dev.dojolist/dojo/Judo Club Osaka Hawley">View Details</a>]]></description><Point><coordinates>-0.76233,51.311743</coordinates></Point></Placemark><Placemark><name>Paul Jones School of Judo </name><description><![CDATA[<a href="http://dev.dojolist/dojo/Paul Jones School of Judo ">View Details</a>]]></description><Point><coordinates>-1.071954,51.259141</coordinates></Point></Placemark><Placemark><name>Portsmouth Judo Club</name><description><![CDATA[<a href="http://dev.dojolist/dojo/Portsmouth Judo Club">View Details</a>]]></description><Point><coordinates>-1.0744455,50.8485036</coordinates></Point></Placemark><Placemark><name>Portsmouth Grammar School Judo Club</name><description><![CDATA[<a href="http://dev.dojolist/dojo/Portsmouth Grammar School Judo Club">View Details</a>]]></description><Point><coordinates>-1.1028953,50.78973</coordinates></Point></Placemark><Placemark><name>Premier School of Judo</name><description><![CDATA[<a href="http://dev.dojolist/dojo/Premier School of Judo">View Details</a>]]></description><Point><coordinates>-1.310752,50.90756</coordinates></Point></Placemark><Placemark><name>Priory Judokwai (C.S.J)</name><description><![CDATA[<a href="http://dev.dojolist/dojo/Priory Judokwai (C.S.J)">View Details</a>]]></description><Point><coordinates>-1.075378,50.790801</coordinates></Point></Placemark><Placemark><name>Ringwood and Fordingbridge Judo Club</name><description><![CDATA[<a href="http://dev.dojolist/dojo/Ringwood and Fordingbridge Judo Club">View Details</a>]]></description><Point><coordinates>-1.7823128,50.8307017</coordinates></Point></Placemark><Placemark><name>River Park Judo Club</name><description><![CDATA[<a href="http://dev.dojolist/dojo/River Park Judo Club">View Details</a>]]></description><Point><coordinates>-1.312422,51.067304</coordinates></Point></Placemark><Placemark><name>Ryde Judo Club</name><description><![CDATA[<a href="http://dev.dojolist/dojo/Ryde Judo Club">View Details</a>]]></description><Point><coordinates>-1.161966,50.729914</coordinates></Point></Placemark><Placemark><name>Scorpion Judo Club</name><description><![CDATA[<a href="http://dev.dojolist/dojo/Scorpion Judo Club">View Details</a>]]></description><Point><coordinates>-1.5616608,51.1598698</coordinates></Point></Placemark><Placemark><name>Southampton University J.C</name><description><![CDATA[<a href="http://dev.dojolist/dojo/Southampton University J.C">View Details</a>]]></description><Point><coordinates>-1.4002,50.9307</coordinates></Point></Placemark><Placemark><name>Southern Judokan Cowplain</name><description><![CDATA[<a href="http://dev.dojolist/dojo/Southern Judokan Cowplain">View Details</a>]]></description><Point><coordinates>-1.014772,50.893469</coordinates></Point></Placemark><Placemark><name>Southern Judokan (Bourne)</name><description><![CDATA[<a href="http://dev.dojolist/dojo/Southern Judokan (Bourne)">View Details</a>]]></description><Point><coordinates>-0.9371971,50.8478106</coordinates></Point></Placemark><Placemark><name>Southern Judokan (Rowlands Castle)</name><description><![CDATA[<a href="http://dev.dojolist/dojo/Southern Judokan (Rowlands Castle)">View Details</a>]]></description><Point><coordinates>-0.965811,50.882137</coordinates></Point></Placemark><Placemark><name>Stamshaw School Judo</name><description><![CDATA[<a href="http://dev.dojolist/dojo/Stamshaw School Judo">View Details</a>]]></description><Point><coordinates>-1.0805774,50.8201965</coordinates></Point></Placemark><Placemark><name>Summit Judo Club</name><description><![CDATA[<a href="http://dev.dojolist/dojo/Summit Judo Club">View Details</a>]]></description><Point><coordinates>-1.0526527,51.2846488</coordinates></Point></Placemark><Placemark><name>Torakan Judo Club</name><description><![CDATA[<a href="http://dev.dojolist/dojo/Torakan Judo Club">View Details</a>]]></description><Point><coordinates>-2.1936913,49.1843798</coordinates></Point></Placemark><Placemark><name>Wimbourne School</name><description><![CDATA[<a href="http://dev.dojolist/dojo/Wimbourne School">View Details</a>]]></description><Point><coordinates>-1.0735694,50.7874037</coordinates></Point></Placemark><Placemark><name>Winchester Judo Club</name><description><![CDATA[<a href="http://dev.dojolist/dojo/Winchester Judo Club">View Details</a>]]></description><Point><coordinates>-1.316494,51.068964</coordinates></Point></Placemark><Placemark><name>Winchester College Judo Club</name><description><![CDATA[<a href="http://dev.dojolist/dojo/Winchester College Judo Club">View Details</a>]]></description><Point><coordinates>-1.312632,51.058442</coordinates></Point></Placemark><Placemark><name></name><description><![CDATA[<a href="http://dev.dojolist/dojo/">View Details</a>]]></description><Point><coordinates>,</coordinates></Point></Placemark><Placemark><name></name><description><![CDATA[<a href="http://dev.dojolist/dojo/">View Details</a>]]></description><Point><coordinates>,</coordinates></Point></Placemark><Placemark><name>test_case_dojo</name><description><![CDATA[<a href="http://dev.dojolist/dojo/test_case_dojo">View Details</a>]]></description><Point><coordinates>1.4833333,42.5666667</coordinates></Point></Placemark><Placemark><name>Silicon Valley Judo</name><description><![CDATA[<a href="http://dev.dojolist/dojo/Silicon Valley Judo">View Details</a>]]></description><Point><coordinates>-121.904308,37.332736</coordinates></Point></Placemark><Placemark><name>Combat Judo Academy</name><description><![CDATA[<a href="http://dev.dojolist/dojo/Combat Judo Academy">View Details</a>]]></description><Point><coordinates>-73.471584,40.677400</coordinates></Point></Placemark><Placemark><name>DLT Welcome Mat Judo</name><description><![CDATA[<a href="http://dev.dojolist/dojo/DLT Welcome Mat Judo">View Details</a>]]></description><Point><coordinates>-94.331360,39.034120</coordinates></Point></Placemark><Placemark><name>Budo-Club Karlsruhe</name><description><![CDATA[<a href="http://dev.dojolist/dojo/Budo-Club Karlsruhe">View Details</a>]]></description><Point><coordinates>8.376861,49.012851</coordinates></Point></Placemark><Placemark><name>San Shi Judo Club</name><description><![CDATA[<a href="http://dev.dojolist/dojo/San Shi Judo Club">View Details</a>]]></description><Point><coordinates>-117.285115,33.187703</coordinates></Point></Placemark><Placemark><name>Judo Club Usurbil</name><description><![CDATA[<a href="http://dev.dojolist/dojo/Judo Club Usurbil">View Details</a>]]></description><Point><coordinates>-2.050399,43.272354</coordinates></Point></Placemark><Placemark><name>Texas A and M University Judo</name><description><![CDATA[<a href="http://dev.dojolist/dojo/Texas A and M University Judo">View Details</a>]]></description><Point><coordinates>-96.339798,30.611147</coordinates></Point></Placemark><Placemark><name>Gulf Coast Judo</name><description><![CDATA[<a href="http://dev.dojolist/dojo/Gulf Coast Judo">View Details</a>]]></description><Point><coordinates>-88.775110,30.410634</coordinates></Point></Placemark><Placemark><name>WAT Stadlau</name><description><![CDATA[<a href="http://dev.dojolist/dojo/WAT Stadlau">View Details</a>]]></description><Point><coordinates>16.436191,48.247140</coordinates></Point></Placemark><Placemark><name>Sportschool van de Pol</name><description><![CDATA[<a href="http://dev.dojolist/dojo/Sportschool van de Pol">View Details</a>]]></description><Point><coordinates>5.663345,51.488946</coordinates></Point></Placemark><Placemark><name>Westlands Judo Club</name><description><![CDATA[<a href="http://dev.dojolist/dojo/Westlands Judo Club">View Details</a>]]></description><Point><coordinates>-2.164972,52.275274</coordinates></Point></Placemark><Placemark><name>Droitwich Spa Judo Kan</name><description><![CDATA[<a href="http://dev.dojolist/dojo/Droitwich Spa Judo Kan">View Details</a>]]></description><Point><coordinates>-2.157322,52.260764</coordinates></Point></Placemark><Placemark><name>TuSG Ritterhude JUDO</name><description><![CDATA[<a href="http://dev.dojolist/dojo/TuSG Ritterhude JUDO">View Details</a>]]></description><Point><coordinates>8.752515,53.179809</coordinates></Point></Placemark><Placemark><name>Wolverhampton Judo Club</name><description><![CDATA[<a href="http://dev.dojolist/dojo/Wolverhampton Judo Club">View Details</a>]]></description><Point><coordinates>-2.089462,52.596375</coordinates></Point></Placemark><Placemark><name>Kyoudai Judo Wellington</name><description><![CDATA[<a href="http://dev.dojolist/dojo/Kyoudai Judo Wellington">View Details</a>]]></description><Point><coordinates>148.944638,-32.553338</coordinates></Point></Placemark><Placemark><name>Croydon Judo club</name><description><![CDATA[<a href="http://dev.dojolist/dojo/Croydon Judo club">View Details</a>]]></description><Point><coordinates>-0.085466,51.381692</coordinates></Point></Placemark><Placemark><name>Judo Club Efringen-Kirchen e.V.</name><description><![CDATA[<a href="http://dev.dojolist/dojo/Judo Club Efringen-Kirchen e.V.">View Details</a>]]></description><Point><coordinates>7.558508,47.653363</coordinates></Point></Placemark><Placemark><name>University of Wolverhampton Judo Club</name><description><![CDATA[<a href="http://dev.dojolist/dojo/University of Wolverhampton Judo Club">View Details</a>]]></description><Point><coordinates>-2.005005,52.576350</coordinates></Point></Placemark><Placemark><name>Budo Club Malsch e.V.</name><description><![CDATA[<a href="http://dev.dojolist/dojo/Budo Club Malsch e.V.">View Details</a>]]></description><Point><coordinates>8.325121,48.883794</coordinates></Point></Placemark><Placemark><name>Vale Judo Club</name><description><![CDATA[<a href="http://dev.dojolist/dojo/Vale Judo Club">View Details</a>]]></description><Point><coordinates>-0.734389,52.678438</coordinates></Point></Placemark><Placemark><name>Warwick University Judo Club</name><description><![CDATA[<a href="http://dev.dojolist/dojo/Warwick University Judo Club">View Details</a>]]></description><Point><coordinates>-1.560874,52.380682</coordinates></Point></Placemark><Placemark><name>1. Walsumer Judo-Club</name><description><![CDATA[<a href="http://dev.dojolist/dojo/1. Walsumer Judo-Club">View Details</a>]]></description><Point><coordinates>6.736153,51.533523</coordinates></Point></Placemark><Placemark><name>VdS Nievenheim - Judoabteilung</name><description><![CDATA[<a href="http://dev.dojolist/dojo/VdS Nievenheim - Judoabteilung">View Details</a>]]></description><Point><coordinates>6.780238,51.119095</coordinates></Point></Placemark><Placemark><name>Norwich Judo Dojo</name><description><![CDATA[<a href="http://dev.dojolist/dojo/Norwich Judo Dojo">View Details</a>]]></description><Point><coordinates>-72.102209,41.547805</coordinates></Point></Placemark><Placemark><name>Coventry Judo Club</name><description><![CDATA[<a href="http://dev.dojolist/dojo/Coventry Judo Club">View Details</a>]]></description><Point><coordinates>-1.593205,52.411981</coordinates></Point></Placemark><Placemark><name>The Budokwai</name><description><![CDATA[<a href="http://dev.dojolist/dojo/The Budokwai">View Details</a>]]></description><Point><coordinates>-0.180564,51.486461</coordinates></Point></Placemark><Placemark><name>Phnom Penh Judo club</name><description><![CDATA[<a href="http://dev.dojolist/dojo/Phnom Penh Judo club">View Details</a>]]></description><Point><coordinates>104.909434,11.557693</coordinates></Point></Placemark><Placemark><name>Judo Tao</name><description><![CDATA[<a href="http://dev.dojolist/dojo/Judo Tao">View Details</a>]]></description><Point><coordinates>2.098249,41.369426</coordinates></Point></Placemark><Placemark><name>Judo klub Dubrovnik</name><description><![CDATA[<a href="http://dev.dojolist/dojo/Judo klub Dubrovnik">View Details</a>]]></description><Point><coordinates>18.088603,42.647060</coordinates></Point></Placemark><Placemark><name>Sale Judo club</name><description><![CDATA[<a href="http://dev.dojolist/dojo/Sale Judo club">View Details</a>]]></description><Point><coordinates>-2.317075,53.424680</coordinates></Point></Placemark><Placemark><name>Thai Japanese Stadium judo club</name><description><![CDATA[<a href="http://dev.dojolist/dojo/Thai Japanese Stadium judo club">View Details</a>]]></description><Point><coordinates>100.552197,13.767272</coordinates></Point></Placemark><Placemark><name>swindon judo club</name><description><![CDATA[<a href="http://dev.dojolist/dojo/swindon judo club">View Details</a>]]></description><Point><coordinates>-1.796265,51.549751</coordinates></Point></Placemark><Placemark><name>Judo Club Hajime Kerpen-Brggen</name><description><![CDATA[<a href="http://dev.dojolist/dojo/Judo Club Hajime Kerpen-Brggen">View Details</a>]]></description><Point><coordinates>6.764574,50.850655</coordinates></Point></Placemark><Placemark><name>Hontai Judo Club</name><description><![CDATA[<a href="http://dev.dojolist/dojo/Hontai Judo Club">View Details</a>]]></description><Point><coordinates>25.019367,60.280132</coordinates></Point></Placemark><Placemark><name>Turun judoseura</name><description><![CDATA[<a href="http://dev.dojolist/dojo/Turun judoseura">View Details</a>]]></description><Point><coordinates>22.281175,60.465660</coordinates></Point></Placemark><Placemark><name>Chu To Bu West</name><description><![CDATA[<a href="http://dev.dojolist/dojo/Chu To Bu West">View Details</a>]]></description><Point><coordinates>-81.988392,41.470773</coordinates></Point></Placemark><Placemark><name>JudoInside</name><description><![CDATA[<a href="http://dev.dojolist/dojo/JudoInside">View Details</a>]]></description><Point><coordinates>5.556850,52.004196</coordinates></Point></Placemark><Placemark><name>EJU</name><description><![CDATA[<a href="http://dev.dojolist/dojo/EJU">View Details</a>]]></description><Point><coordinates>14.520493,35.905181</coordinates></Point></Placemark><Placemark><name>Garioch Judo Club</name><description><![CDATA[<a href="http://dev.dojolist/dojo/Garioch Judo Club">View Details</a>]]></description><Point><coordinates>-2.182803,57.205897</coordinates></Point></Placemark><Placemark><name>Aberdeen Judo Club</name><description><![CDATA[<a href="http://dev.dojolist/dojo/Aberdeen Judo Club">View Details</a>]]></description><Point><coordinates>-2.079849,57.156029</coordinates></Point></Placemark><Placemark><name>Bellahouston Judo Club</name><description><![CDATA[<a href="http://dev.dojolist/dojo/Bellahouston Judo Club">View Details</a>]]></description><Point><coordinates>-4.249842,55.865993</coordinates></Point></Placemark><Placemark><name>Cluarankwai</name><description><![CDATA[<a href="http://dev.dojolist/dojo/Cluarankwai">View Details</a>]]></description><Point><coordinates>-4.483066,55.603554</coordinates></Point></Placemark><Placemark><name>Falu Judoklubb</name><description><![CDATA[<a href="http://dev.dojolist/dojo/Falu Judoklubb">View Details</a>]]></description><Point><coordinates>15.656900,60.617600</coordinates></Point></Placemark><Placemark><name>Forshaga Judoklubb</name><description><![CDATA[<a href="http://dev.dojolist/dojo/Forshaga Judoklubb">View Details</a>]]></description><Point><coordinates>13.486300,59.520900</coordinates></Point></Placemark><Placemark><name>Frlunda Judoklubb</name><description><![CDATA[<a href="http://dev.dojolist/dojo/Frlunda Judoklubb">View Details</a>]]></description><Point><coordinates>11.923100,57.644600</coordinates></Point></Placemark><Placemark><name>Frvi Judo</name><description><![CDATA[<a href="http://dev.dojolist/dojo/Frvi Judo">View Details</a>]]></description><Point><coordinates>15.355700,59.470100</coordinates></Point></Placemark><Placemark><name>Frgelanda Judoklubb</name><description><![CDATA[<a href="http://dev.dojolist/dojo/Frgelanda Judoklubb">View Details</a>]]></description><Point><coordinates>12.060800,58.569700</coordinates></Point></Placemark><Placemark><name>GAK Enighet</name><description><![CDATA[<a href="http://dev.dojolist/dojo/GAK Enighet">View Details</a>]]></description><Point><coordinates>13.020700,55.587700</coordinates></Point></Placemark><Placemark><name>GF Idrott Judosektion</name><description><![CDATA[<a href="http://dev.dojolist/dojo/GF Idrott Judosektion">View Details</a>]]></description><Point><coordinates>12.840000,55.884500</coordinates></Point></Placemark><Placemark><name>Gribby Judo</name><description><![CDATA[<a href="http://dev.dojolist/dojo/Gribby Judo">View Details</a>]]></description><Point><coordinates>18.089200,59.462400</coordinates></Point></Placemark><Placemark><name>Grums Judoklubb</name><description><![CDATA[<a href="http://dev.dojolist/dojo/Grums Judoklubb">View Details</a>]]></description><Point><coordinates>13.105900,59.354200</coordinates></Point></Placemark><Placemark><name>Gullmarens Judoklubb</name><description><![CDATA[<a href="http://dev.dojolist/dojo/Gullmarens Judoklubb">View Details</a>]]></description><Point><coordinates>11.426000,58.383300</coordinates></Point></Placemark><Placemark><name>Hammar Judoklubb</name><description><![CDATA[<a href="http://dev.dojolist/dojo/Hammar Judoklubb">View Details</a>]]></description><Point><coordinates>13.539700,59.304700</coordinates></Point></Placemark><Placemark><name>Habo Judoklubb</name><description><![CDATA[<a href="http://dev.dojolist/dojo/Habo Judoklubb">View Details</a>]]></description><Point><coordinates>14.099000,57.913900</coordinates></Point></Placemark><Placemark><name>Gtene Judo</name><description><![CDATA[<a href="http://dev.dojolist/dojo/Gtene Judo">View Details</a>]]></description><Point><coordinates>13.477900,58.526800</coordinates></Point></Placemark><Placemark><name>Gteborgs Judoklubb</name><description><![CDATA[<a href="http://dev.dojolist/dojo/Gteborgs Judoklubb">View Details</a>]]></description><Point><coordinates>11.940500,57.698600</coordinates></Point></Placemark><Placemark><name>Gteborg - JK Kano</name><description><![CDATA[<a href="http://dev.dojolist/dojo/Gteborg - JK Kano">View Details</a>]]></description><Point><coordinates>11.975500,57.698900</coordinates></Point></Placemark><Placemark><name>Gvle Tjder</name><description><![CDATA[<a href="http://dev.dojolist/dojo/Gvle Tjder">View Details</a>]]></description><Point><coordinates>17.116200,60.691400</coordinates></Point></Placemark><Placemark><name>Gvle Judo Club</name><description><![CDATA[<a href="http://dev.dojolist/dojo/Gvle Judo Club">View Details</a>]]></description><Point><coordinates>17.175200,60.659400</coordinates></Point></Placemark><Placemark><name>Gustafs JK</name><description><![CDATA[<a href="http://dev.dojolist/dojo/Gustafs JK">View Details</a>]]></description><Point><coordinates>15.597400,60.402300</coordinates></Point></Placemark><Placemark><name>Falkenbergs Judoklubb</name><description><![CDATA[<a href="http://dev.dojolist/dojo/Falkenbergs Judoklubb">View Details</a>]]></description><Point><coordinates>12.471400,56.897500</coordinates></Point></Placemark><Placemark><name>Fagersta Judoklubb</name><description><![CDATA[<a href="http://dev.dojolist/dojo/Fagersta Judoklubb">View Details</a>]]></description><Point><coordinates>15.808400,60.000600</coordinates></Point></Placemark><Placemark><name>Eskilstuna Judoklubb</name><description><![CDATA[<a href="http://dev.dojolist/dojo/Eskilstuna Judoklubb">View Details</a>]]></description><Point><coordinates>16.509800,59.373800</coordinates></Point></Placemark><Placemark><name>Carlshamn Judo</name><description><![CDATA[<a href="http://dev.dojolist/dojo/Carlshamn Judo">View Details</a>]]></description><Point><coordinates>14.865400,56.170200</coordinates></Point></Placemark><Placemark><name>Eker Judoklubb</name><description><![CDATA[<a href="http://dev.dojolist/dojo/Eker Judoklubb">View Details</a>]]></description><Point><coordinates>17.716500,59.288300</coordinates></Point></Placemark><Placemark><name>Blsta Judoklubb</name><description><![CDATA[<a href="http://dev.dojolist/dojo/Blsta Judoklubb">View Details</a>]]></description><Point><coordinates>17.538700,59.560200</coordinates></Point></Placemark><Placemark><name>Budoklubben Yoi</name><description><![CDATA[<a href="http://dev.dojolist/dojo/Budoklubben Yoi">View Details</a>]]></description><Point><coordinates>13.878100,57.915400</coordinates></Point></Placemark><Placemark><name>Bors Judoklubb</name><description><![CDATA[<a href="http://dev.dojolist/dojo/Bors Judoklubb">View Details</a>]]></description><Point><coordinates>12.931500,57.720100</coordinates></Point></Placemark><Placemark><name>Borlnge Judo Club</name><description><![CDATA[<a href="http://dev.dojolist/dojo/Borlnge Judo Club">View Details</a>]]></description><Point><coordinates>15.404300,60.472600</coordinates></Point></Placemark><Placemark><name>Helsingborgs Judoklubb</name><description><![CDATA[<a href="http://dev.dojolist/dojo/Helsingborgs Judoklubb">View Details</a>]]></description><Point><coordinates>12.704700,56.052700</coordinates></Point></Placemark><Placemark><name>Hudiksvalls Judoklubb</name><description><![CDATA[<a href="http://dev.dojolist/dojo/Hudiksvalls Judoklubb">View Details</a>]]></description><Point><coordinates>17.109900,61.717300</coordinates></Point></Placemark><Placemark><name>Hunnebo Judo</name><description><![CDATA[<a href="http://dev.dojolist/dojo/Hunnebo Judo">View Details</a>]]></description><Point><coordinates>11.298900,58.435000</coordinates></Point></Placemark><Placemark><name>Hgdalens Judoklubb</name><description><![CDATA[<a href="http://dev.dojolist/dojo/Hgdalens Judoklubb">View Details</a>]]></description><Point><coordinates>18.041700,59.264400</coordinates></Point></Placemark><Placemark><name>IF Aktiv Ungdom i Liding</name><description><![CDATA[<a href="http://dev.dojolist/dojo/IF Aktiv Ungdom i Liding">View Details</a>]]></description><Point><coordinates>18.156800,59.374200</coordinates></Point></Placemark><Placemark><name>IF Jrflla Judo</name><description><![CDATA[<a href="http://dev.dojolist/dojo/IF Jrflla Judo">View Details</a>]]></description><Point><coordinates>17.838100,59.417100</coordinates></Point></Placemark><Placemark><name>IK Sdra Judo, Farstahallen</name><description><![CDATA[<a href="http://dev.dojolist/dojo/IK Sdra Judo, Farstahallen">View Details</a>]]></description><Point><coordinates>18.084900,59.239300</coordinates></Point></Placemark><Placemark><name>IK Sdra Judo, Skarpnck</name><description><![CDATA[<a href="http://dev.dojolist/dojo/IK Sdra Judo, Skarpnck">View Details</a>]]></description><Point><coordinates>18.143400,59.267400</coordinates></Point></Placemark><Placemark><name>IK Sdra Judo, Torvallahallen</name><description><![CDATA[<a href="http://dev.dojolist/dojo/IK Sdra Judo, Torvallahallen">View Details</a>]]></description><Point><coordinates>18.155900,59.166100</coordinates></Point></Placemark><Placemark><name>IK Vstra Mlndal</name><description><![CDATA[<a href="http://dev.dojolist/dojo/IK Vstra Mlndal">View Details</a>]]></description><Point><coordinates>11.991600,57.661600</coordinates></Point></Placemark><Placemark><name>JK Jinkei</name><description><![CDATA[<a href="http://dev.dojolist/dojo/JK Jinkei">View Details</a>]]></description><Point><coordinates>12.002300,57.729900</coordinates></Point></Placemark><Placemark><name>Jordbro Judo club</name><description><![CDATA[<a href="http://dev.dojolist/dojo/Jordbro Judo club">View Details</a>]]></description><Point><coordinates>18.139800,59.138200</coordinates></Point></Placemark><Placemark><name>Judo Club Sundsvall</name><description><![CDATA[<a href="http://dev.dojolist/dojo/Judo Club Sundsvall">View Details</a>]]></description><Point><coordinates>17.340200,62.396200</coordinates></Point></Placemark><Placemark><name>Judoklubben Budo</name><description><![CDATA[<a href="http://dev.dojolist/dojo/Judoklubben Budo">View Details</a>]]></description><Point><coordinates>11.954400,57.742300</coordinates></Point></Placemark><Placemark><name>Judoklubben Jigo-Tai</name><description><![CDATA[<a href="http://dev.dojolist/dojo/Judoklubben Jigo-Tai">View Details</a>]]></description><Point><coordinates>13.942700,56.825800</coordinates></Point></Placemark><Placemark><name>Judoklubben Ki</name><description><![CDATA[<a href="http://dev.dojolist/dojo/Judoklubben Ki">View Details</a>]]></description><Point><coordinates>11.898100,57.659200</coordinates></Point></Placemark><Placemark><name>Judoklubben National</name><description><![CDATA[<a href="http://dev.dojolist/dojo/Judoklubben National">View Details</a>]]></description><Point><coordinates>12.869500,56.690000</coordinates></Point></Placemark><Placemark><name>Jrflla Budoklubb</name><description><![CDATA[<a href="http://dev.dojolist/dojo/Jrflla Budoklubb">View Details</a>]]></description><Point><coordinates>17.834900,59.427000</coordinates></Point></Placemark><Placemark><name>Jnkpings Judoklubb</name><description><![CDATA[<a href="http://dev.dojolist/dojo/Jnkpings Judoklubb">View Details</a>]]></description><Point><coordinates>14.206600,57.782400</coordinates></Point></Placemark><Placemark><name>Kallinge Judoclub</name><description><![CDATA[<a href="http://dev.dojolist/dojo/Kallinge Judoclub">View Details</a>]]></description><Point><coordinates>15.273400,56.203300</coordinates></Point></Placemark><Placemark><name>Kalmar Budoklubb</name><description><![CDATA[<a href="http://dev.dojolist/dojo/Kalmar Budoklubb">View Details</a>]]></description><Point><coordinates>16.349300,56.668000</coordinates></Point></Placemark><Placemark><name>Kampsportscentrums Judosektion</name><description><![CDATA[<a href="http://dev.dojolist/dojo/Kampsportscentrums Judosektion">View Details</a>]]></description><Point><coordinates>12.312700,58.380300</coordinates></Point></Placemark><Placemark><name>Kampsportsklubben Mifune</name><description><![CDATA[<a href="http://dev.dojolist/dojo/Kampsportsklubben Mifune">View Details</a>]]></description><Point><coordinates>15.164500,59.275300</coordinates></Point></Placemark><Placemark><name>Karlskoga Budoklubb</name><description><![CDATA[<a href="http://dev.dojolist/dojo/Karlskoga Budoklubb">View Details</a>]]></description><Point><coordinates>14.535600,59.328100</coordinates></Point></Placemark><Placemark><name>Karlskrona Judoklubb</name><description><![CDATA[<a href="http://dev.dojolist/dojo/Karlskrona Judoklubb">View Details</a>]]></description><Point><coordinates>15.565200,56.161200</coordinates></Point></Placemark><Placemark><name>Karlstad Judoklubb</name><description><![CDATA[<a href="http://dev.dojolist/dojo/Karlstad Judoklubb">View Details</a>]]></description><Point><coordinates>13.513300,59.390200</coordinates></Point></Placemark><Placemark><name>Kitana Judoklubb</name><description><![CDATA[<a href="http://dev.dojolist/dojo/Kitana Judoklubb">View Details</a>]]></description><Point><coordinates>18.309300,59.478500</coordinates></Point></Placemark><Placemark><name>Knivsta Judoklubb</name><description><![CDATA[<a href="http://dev.dojolist/dojo/Knivsta Judoklubb">View Details</a>]]></description><Point><coordinates>17.787800,59.726700</coordinates></Point></Placemark><Placemark><name>Kristianstad Judoklubb</name><description><![CDATA[<a href="http://dev.dojolist/dojo/Kristianstad Judoklubb">View Details</a>]]></description><Point><coordinates>14.150700,56.023300</coordinates></Point></Placemark><Placemark><name>Kristinehamns Judoklubb</name><description><![CDATA[<a href="http://dev.dojolist/dojo/Kristinehamns Judoklubb">View Details</a>]]></description><Point><coordinates>14.100100,59.317200</coordinates></Point></Placemark><Placemark><name>Kungsbacka Judoklubb</name><description><![CDATA[<a href="http://dev.dojolist/dojo/Kungsbacka Judoklubb">View Details</a>]]></description><Point><coordinates>12.076100,57.482300</coordinates></Point></Placemark><Placemark><name>Kllan i Finspng</name><description><![CDATA[<a href="http://dev.dojolist/dojo/Kllan i Finspng">View Details</a>]]></description><Point><coordinates>15.808400,58.714200</coordinates></Point></Placemark><Placemark><name>Kpings Judoklubb</name><description><![CDATA[<a href="http://dev.dojolist/dojo/Kpings Judoklubb">View Details</a>]]></description><Point><coordinates>15.993500,59.518000</coordinates></Point></Placemark><Placemark><name>Landvetter Judoklubb</name><description><![CDATA[<a href="http://dev.dojolist/dojo/Landvetter Judoklubb">View Details</a>]]></description><Point><coordinates>12.207500,57.695000</coordinates></Point></Placemark><Placemark><name>Lerums Judoklubb</name><description><![CDATA[<a href="http://dev.dojolist/dojo/Lerums Judoklubb">View Details</a>]]></description><Point><coordinates>12.309200,57.792500</coordinates></Point></Placemark><Placemark><name>Lidkpings Budoklubb</name><description><![CDATA[<a href="http://dev.dojolist/dojo/Lidkpings Budoklubb">View Details</a>]]></description><Point><coordinates>13.147200,58.496200</coordinates></Point></Placemark><Placemark><name>Lilla Edets Judoklubb</name><description><![CDATA[<a href="http://dev.dojolist/dojo/Lilla Edets Judoklubb">View Details</a>]]></description><Point><coordinates>12.106700,58.142200</coordinates></Point></Placemark><Placemark><name>Lindome Judoklubb</name><description><![CDATA[<a href="http://dev.dojolist/dojo/Lindome Judoklubb">View Details</a>]]></description><Point><coordinates>12.042000,57.606700</coordinates></Point></Placemark><Placemark><name>Linkping Judo</name><description><![CDATA[<a href="http://dev.dojolist/dojo/Linkping Judo">View Details</a>]]></description><Point><coordinates>15.634700,58.411700</coordinates></Point></Placemark><Placemark><name>Ljusdals Judo Club</name><description><![CDATA[<a href="http://dev.dojolist/dojo/Ljusdals Judo Club">View Details</a>]]></description><Point><coordinates>16.088200,61.828000</coordinates></Point></Placemark><Placemark><name>Ludvika Judoklubb</name><description><![CDATA[<a href="http://dev.dojolist/dojo/Ludvika Judoklubb">View Details</a>]]></description><Point><coordinates>15.178600,60.124400</coordinates></Point></Placemark><Placemark><name>Lugi Judoklubb</name><description><![CDATA[<a href="http://dev.dojolist/dojo/Lugi Judoklubb">View Details</a>]]></description><Point><coordinates>13.177600,55.703900</coordinates></Point></Placemark><Placemark><name>Lule Judoklubb</name><description><![CDATA[<a href="http://dev.dojolist/dojo/Lule Judoklubb">View Details</a>]]></description><Point><coordinates>22.150400,65.587800</coordinates></Point></Placemark><Placemark><name>Lngshyttans Judoklubb</name><description><![CDATA[<a href="http://dev.dojolist/dojo/Lngshyttans Judoklubb">View Details</a>]]></description><Point><coordinates>16.026700,60.446900</coordinates></Point></Placemark><Placemark><name>Malm Budokan Judoklubb</name><description><![CDATA[<a href="http://dev.dojolist/dojo/Malm Budokan Judoklubb">View Details</a>]]></description><Point><coordinates>13.000100,55.597400</coordinates></Point></Placemark><Placemark><name>Mariestads Judoklubb</name><description><![CDATA[<a href="http://dev.dojolist/dojo/Mariestads Judoklubb">View Details</a>]]></description><Point><coordinates>13.821900,58.695500</coordinates></Point></Placemark><Placemark><name>Molkom Judoklubb</name><description><![CDATA[<a href="http://dev.dojolist/dojo/Molkom Judoklubb">View Details</a>]]></description><Point><coordinates>13.724900,59.604600</coordinates></Point></Placemark><Placemark><name>Mrsta Judoklubb</name><description><![CDATA[<a href="http://dev.dojolist/dojo/Mrsta Judoklubb">View Details</a>]]></description><Point><coordinates>17.826600,59.617700</coordinates></Point></Placemark><Placemark><name>Mlndals Judoklubb</name><description><![CDATA[<a href="http://dev.dojolist/dojo/Mlndals Judoklubb">View Details</a>]]></description><Point><coordinates>11.991600,57.661600</coordinates></Point></Placemark><Placemark><name>Mlntorps IK Judo</name><description><![CDATA[<a href="http://dev.dojolist/dojo/Mlntorps IK Judo">View Details</a>]]></description><Point><coordinates>16.226500,59.615700</coordinates></Point></Placemark><Placemark><name>Nacka Judoklubb</name><description><![CDATA[<a href="http://dev.dojolist/dojo/Nacka Judoklubb">View Details</a>]]></description><Point><coordinates>18.153000,59.310600</coordinates></Point></Placemark><Placemark><name>Norrkpings judoklubb</name><description><![CDATA[<a href="http://dev.dojolist/dojo/Norrkpings judoklubb">View Details</a>]]></description><Point><coordinates>16.135400,58.597600</coordinates></Point></Placemark><Placemark><name>Norrtlje Judoklubb</name><description><![CDATA[<a href="http://dev.dojolist/dojo/Norrtlje Judoklubb">View Details</a>]]></description><Point><coordinates>18.720800,59.765300</coordinates></Point></Placemark><Placemark><name>Nybro Ju-jutsu och Judo</name><description><![CDATA[<a href="http://dev.dojolist/dojo/Nybro Ju-jutsu och Judo">View Details</a>]]></description><Point><coordinates>15.905500,56.744000</coordinates></Point></Placemark><Placemark><name>Nykpings judoklubb</name><description><![CDATA[<a href="http://dev.dojolist/dojo/Nykpings judoklubb">View Details</a>]]></description><Point><coordinates>17.043400,58.750200</coordinates></Point></Placemark><Placemark><name>Olofstrms Judoklubb</name><description><![CDATA[<a href="http://dev.dojolist/dojo/Olofstrms Judoklubb">View Details</a>]]></description><Point><coordinates>14.530400,56.270600</coordinates></Point></Placemark><Placemark><name>Oxelsunds Judoklubb</name><description><![CDATA[<a href="http://dev.dojolist/dojo/Oxelsunds Judoklubb">View Details</a>]]></description><Point><coordinates>17.080700,58.674000</coordinates></Point></Placemark><Placemark><name>Perstorps Budoklubb</name><description><![CDATA[<a href="http://dev.dojolist/dojo/Perstorps Budoklubb">View Details</a>]]></description><Point><coordinates>13.394800,56.138300</coordinates></Point></Placemark><Placemark><name>Pite Judoklubb</name><description><![CDATA[<a href="http://dev.dojolist/dojo/Pite Judoklubb">View Details</a>]]></description><Point><coordinates>21.483200,65.326600</coordinates></Point></Placemark><Placemark><name>Rimbo Judoklubb</name><description><![CDATA[<a href="http://dev.dojolist/dojo/Rimbo Judoklubb">View Details</a>]]></description><Point><coordinates>18.357900,59.742400</coordinates></Point></Placemark><Placemark><name>Rttviks Judoklubb</name><description><![CDATA[<a href="http://dev.dojolist/dojo/Rttviks Judoklubb">View Details</a>]]></description><Point><coordinates>15.146800,60.895800</coordinates></Point></Placemark><Placemark><name>Sakura Judoklubb</name><description><![CDATA[<a href="http://dev.dojolist/dojo/Sakura Judoklubb">View Details</a>]]></description><Point><coordinates>12.028100,57.737200</coordinates></Point></Placemark><Placemark><name>Saltsj Judoklubb</name><description><![CDATA[<a href="http://dev.dojolist/dojo/Saltsj Judoklubb">View Details</a>]]></description><Point><coordinates>18.395500,59.335800</coordinates></Point></Placemark><Placemark><name>Seiryoku Zenyo Judo</name><description><![CDATA[<a href="http://dev.dojolist/dojo/Seiryoku Zenyo Judo">View Details</a>]]></description><Point><coordinates>16.602800,59.918200</coordinates></Point></Placemark><Placemark><name>Sigtuna Budoklubb</name><description><![CDATA[<a href="http://dev.dojolist/dojo/Sigtuna Budoklubb">View Details</a>]]></description><Point><coordinates>17.725400,59.621200</coordinates></Point></Placemark><Placemark><name>Skellefte Judoklubb</name><description><![CDATA[<a href="http://dev.dojolist/dojo/Skellefte Judoklubb">View Details</a>]]></description><Point><coordinates>20.970100,64.755100</coordinates></Point></Placemark><Placemark><name>Skvde Judoklubb</name><description><![CDATA[<a href="http://dev.dojolist/dojo/Skvde Judoklubb">View Details</a>]]></description><Point><coordinates>13.836700,58.383900</coordinates></Point></Placemark><Placemark><name>Solna Judoklubb</name><description><![CDATA[<a href="http://dev.dojolist/dojo/Solna Judoklubb">View Details</a>]]></description><Point><coordinates>17.988900,59.356000</coordinates></Point></Placemark><Placemark><name>Staffanstorps Judoklubb</name><description><![CDATA[<a href="http://dev.dojolist/dojo/Staffanstorps Judoklubb">View Details</a>]]></description><Point><coordinates>13.215700,55.635700</coordinates></Point></Placemark><Placemark><name>Stenungsunds Judoklubb</name><description><![CDATA[<a href="http://dev.dojolist/dojo/Stenungsunds Judoklubb">View Details</a>]]></description><Point><coordinates>11.827200,58.056700</coordinates></Point></Placemark><Placemark><name>Stockholms Judo Dojo</name><description><![CDATA[<a href="http://dev.dojolist/dojo/Stockholms Judo Dojo">View Details</a>]]></description><Point><coordinates>18.035400,59.340800</coordinates></Point></Placemark><Placemark><name>Stockholms Judoklubb</name><description><![CDATA[<a href="http://dev.dojolist/dojo/Stockholms Judoklubb">View Details</a>]]></description><Point><coordinates>18.014900,59.303600</coordinates></Point></Placemark><Placemark><name>Stockholms Polisens IF Judosektionen</name><description><![CDATA[<a href="http://dev.dojolist/dojo/Stockholms Polisens IF Judosektionen">View Details</a>]]></description><Point><coordinates>18.013200,59.301400</coordinates></Point></Placemark><Placemark><name>Storfors Judoklubb</name><description><![CDATA[<a href="http://dev.dojolist/dojo/Storfors Judoklubb">View Details</a>]]></description><Point><coordinates>14.279300,59.543200</coordinates></Point></Placemark><Placemark><name>Sderhamns Judoklubb</name><description><![CDATA[<a href="http://dev.dojolist/dojo/Sderhamns Judoklubb">View Details</a>]]></description><Point><coordinates>17.069000,61.307700</coordinates></Point></Placemark><Placemark><name>Sderkpings Judoklubb</name><description><![CDATA[<a href="http://dev.dojolist/dojo/Sderkpings Judoklubb">View Details</a>]]></description><Point><coordinates>16.309100,58.477800</coordinates></Point></Placemark><Placemark><name>Sdertlje Judoklubb</name><description><![CDATA[<a href="http://dev.dojolist/dojo/Sdertlje Judoklubb">View Details</a>]]></description><Point><coordinates>17.663600,59.204100</coordinates></Point></Placemark><Placemark><name>Takedown Judo</name><description><![CDATA[<a href="http://dev.dojolist/dojo/Takedown Judo">View Details</a>]]></description><Point><coordinates>13.017200,55.588000</coordinates></Point></Placemark><Placemark><name>Tierps Judoklubb</name><description><![CDATA[<a href="http://dev.dojolist/dojo/Tierps Judoklubb">View Details</a>]]></description><Point><coordinates>17.508600,60.348600</coordinates></Point></Placemark><Placemark><name>Trelleborgs Budo Kai</name><description><![CDATA[<a href="http://dev.dojolist/dojo/Trelleborgs Budo Kai">View Details</a>]]></description><Point><coordinates>13.152900,55.384200</coordinates></Point></Placemark><Placemark><name>Tumba Judoklubb</name><description><![CDATA[<a href="http://dev.dojolist/dojo/Tumba Judoklubb">View Details</a>]]></description><Point><coordinates>17.833600,59.201800</coordinates></Point></Placemark><Placemark><name>Tyres Judo  and  Jujutsuklubb</name><description><![CDATA[<a href="http://dev.dojolist/dojo/Tyres Judo  and  Jujutsuklubb">View Details</a>]]></description><Point><coordinates>18.207300,59.220800</coordinates></Point></Placemark><Placemark><name>Uddevalla Judoklubb</name><description><![CDATA[<a href="http://dev.dojolist/dojo/Uddevalla Judoklubb">View Details</a>]]></description><Point><coordinates>11.957400,58.345500</coordinates></Point></Placemark><Placemark><name>Ume Judoklubb</name><description><![CDATA[<a href="http://dev.dojolist/dojo/Ume Judoklubb">View Details</a>]]></description><Point><coordinates>20.286200,63.828700</coordinates></Point></Placemark><Placemark><name>Upplands Vsby Judoklubb</name><description><![CDATA[<a href="http://dev.dojolist/dojo/Upplands Vsby Judoklubb">View Details</a>]]></description><Point><coordinates>17.899500,59.517300</coordinates></Point></Placemark><Placemark><name>Uppsala Judoklubb</name><description><![CDATA[<a href="http://dev.dojolist/dojo/Uppsala Judoklubb">View Details</a>]]></description><Point><coordinates>17.623300,59.870500</coordinates></Point></Placemark><Placemark><name>Varbergs Judoklubb</name><description><![CDATA[<a href="http://dev.dojolist/dojo/Varbergs Judoklubb">View Details</a>]]></description><Point><coordinates>12.254800,57.099700</coordinates></Point></Placemark><Placemark><name>Vilhelmina Judoklubb</name><description><![CDATA[<a href="http://dev.dojolist/dojo/Vilhelmina Judoklubb">View Details</a>]]></description><Point><coordinates>16.673900,64.617500</coordinates></Point></Placemark><Placemark><name>Vllingby Budoklubb</name><description><![CDATA[<a href="http://dev.dojolist/dojo/Vllingby Budoklubb">View Details</a>]]></description><Point><coordinates>17.880500,59.364300</coordinates></Point></Placemark><Placemark><name>Vstbo Judoklubb</name><description><![CDATA[<a href="http://dev.dojolist/dojo/Vstbo Judoklubb">View Details</a>]]></description><Point><coordinates>13.536200,57.305100</coordinates></Point></Placemark><Placemark><name>Vsterviks Judoklubb</name><description><![CDATA[<a href="http://dev.dojolist/dojo/Vsterviks Judoklubb">View Details</a>]]></description><Point><coordinates>16.621600,57.754300</coordinates></Point></Placemark><Placemark><name>Vsters Judoklubb</name><description><![CDATA[<a href="http://dev.dojolist/dojo/Vsters Judoklubb">View Details</a>]]></description><Point><coordinates>16.608600,59.614100</coordinates></Point></Placemark><Placemark><name>Vsters Judoskola</name><description><![CDATA[<a href="http://dev.dojolist/dojo/Vsters Judoskola">View Details</a>]]></description><Point><coordinates>16.539000,59.606700</coordinates></Point></Placemark><Placemark><name>Vxj Judoklubb</name><description><![CDATA[<a href="http://dev.dojolist/dojo/Vxj Judoklubb">View Details</a>]]></description><Point><coordinates>14.763400,56.887400</coordinates></Point></Placemark><Placemark><name>Ystad Budoclub</name><description><![CDATA[<a href="http://dev.dojolist/dojo/Ystad Budoclub">View Details</a>]]></description><Point><coordinates>13.834000,55.437400</coordinates></Point></Placemark><Placemark><name>nge Judoklubb</name><description><![CDATA[<a href="http://dev.dojolist/dojo/nge Judoklubb">View Details</a>]]></description><Point><coordinates>15.657200,62.518900</coordinates></Point></Placemark><Placemark><name>tvidabergs Judoklubb</name><description><![CDATA[<a href="http://dev.dojolist/dojo/tvidabergs Judoklubb">View Details</a>]]></description><Point><coordinates>16.003100,58.196500</coordinates></Point></Placemark><Placemark><name>lmhults Judoklubb</name><description><![CDATA[<a href="http://dev.dojolist/dojo/lmhults Judoklubb">View Details</a>]]></description><Point><coordinates>14.156600,56.552800</coordinates></Point></Placemark><Placemark><name>ngelholm Judo</name><description><![CDATA[<a href="http://dev.dojolist/dojo/ngelholm Judo">View Details</a>]]></description><Point><coordinates>12.856900,56.248300</coordinates></Point></Placemark><Placemark><name>rebro Judo</name><description><![CDATA[<a href="http://dev.dojolist/dojo/rebro Judo">View Details</a>]]></description><Point><coordinates>15.215400,59.279000</coordinates></Point></Placemark><Placemark><name>stersunds Judoklubb</name><description><![CDATA[<a href="http://dev.dojolist/dojo/stersunds Judoklubb">View Details</a>]]></description><Point><coordinates>14.654600,63.189200</coordinates></Point></Placemark><Placemark><name>BOO KFUM</name><description><![CDATA[<a href="http://dev.dojolist/dojo/BOO KFUM">View Details</a>]]></description><Point><coordinates>18.272700,59.332100</coordinates></Point></Placemark><Placemark><name>Bollns JK</name><description><![CDATA[<a href="http://dev.dojolist/dojo/Bollns JK">View Details</a>]]></description><Point><coordinates>16.386400,61.349400</coordinates></Point></Placemark><Placemark><name>Boden Bushido Center</name><description><![CDATA[<a href="http://dev.dojolist/dojo/Boden Bushido Center">View Details</a>]]></description><Point><coordinates>21.698100,65.831900</coordinates></Point></Placemark><Placemark><name>Arboga Judoklubb</name><description><![CDATA[<a href="http://dev.dojolist/dojo/Arboga Judoklubb">View Details</a>]]></description><Point><coordinates>15.838800,59.395200</coordinates></Point></Placemark><Placemark><name>Alingss Judoklubb</name><description><![CDATA[<a href="http://dev.dojolist/dojo/Alingss Judoklubb">View Details</a>]]></description><Point><coordinates>12.532600,57.940000</coordinates></Point></Placemark><Placemark><name>Shoorikan Jud Club</name><description><![CDATA[<a href="http://dev.dojolist/dojo/Shoorikan Jud Club">View Details</a>]]></description><Point><coordinates>-46.636405,-23.589200</coordinates></Point></Placemark><Placemark><name>Midwest Judo/Jui Jitsu</name><description><![CDATA[<a href="http://dev.dojolist/dojo/Midwest Judo/Jui Jitsu">View Details</a>]]></description><Point><coordinates>-87.986069,41.743140</coordinates></Point></Placemark><Placemark><name>Dallas Kenpo</name><description><![CDATA[<a href="http://dev.dojolist/dojo/Dallas Kenpo">View Details</a>]]></description><Point><coordinates>-96.871201,32.854318</coordinates></Point></Placemark><Placemark><name>Diamond Valley Judo Centre</name><description><![CDATA[<a href="http://dev.dojolist/dojo/Diamond Valley Judo Centre">View Details</a>]]></description><Point><coordinates>145.092144,-37.702837</coordinates></Point></Placemark><Placemark><name>Ray Stevens Judo - Blossom Hse Dojo</name><description><![CDATA[<a href="http://dev.dojolist/dojo/Ray Stevens Judo - Blossom Hse Dojo">View Details</a>]]></description><Point><coordinates>-0.228353,51.416686</coordinates></Point></Placemark><Placemark><name>Ray Stevens Judo - Oberon Dojo</name><description><![CDATA[<a href="http://dev.dojolist/dojo/Ray Stevens Judo - Oberon Dojo">View Details</a>]]></description><Point><coordinates>-0.241914,51.417007</coordinates></Point></Placemark><Placemark><name>JudoGoes</name><description><![CDATA[<a href="http://dev.dojolist/dojo/JudoGoes">View Details</a>]]></description><Point><coordinates>3.894653,51.495065</coordinates></Point></Placemark><Placemark><name>Judo Condal</name><description><![CDATA[<a href="http://dev.dojolist/dojo/Judo Condal">View Details</a>]]></description><Point><coordinates>2.142313,41.372582</coordinates></Point></Placemark><Placemark><name>Obukan Dojo</name><description><![CDATA[<a href="http://dev.dojolist/dojo/Obukan Dojo">View Details</a>]]></description><Point><coordinates>-122.673168,45.569592</coordinates></Point></Placemark><Placemark><name>Coffs Harbour Judo Club</name><description><![CDATA[<a href="http://dev.dojolist/dojo/Coffs Harbour Judo Club">View Details</a>]]></description><Point><coordinates>153.113344,-30.281343</coordinates></Point></Placemark><Placemark><name>TSV Freudenstadt 1862 e.V.</name><description><![CDATA[<a href="http://dev.dojolist/dojo/TSV Freudenstadt 1862 e.V.">View Details</a>]]></description><Point><coordinates>8.418993,48.468475</coordinates></Point></Placemark><Placemark><name>Burnaby Judo Club</name><description><![CDATA[<a href="http://dev.dojolist/dojo/Burnaby Judo Club">View Details</a>]]></description><Point><coordinates>-122.996820,49.224083</coordinates></Point></Placemark><Placemark><name>Mudanshakwai Brechin Judo Club.</name><description><![CDATA[<a href="http://dev.dojolist/dojo/Mudanshakwai Brechin Judo Club.">View Details</a>]]></description><Point><coordinates>-2.655028,56.730744</coordinates></Point></Placemark><Placemark><name>1. SC Grbenzell</name><description><![CDATA[<a href="http://dev.dojolist/dojo/1. SC Grbenzell">View Details</a>]]></description><Point><coordinates>11.382802,48.192097</coordinates></Point></Placemark><Placemark><name>Jigoro Kano Maastricht</name><description><![CDATA[<a href="http://dev.dojolist/dojo/Jigoro Kano Maastricht">View Details</a>]]></description><Point><coordinates>5.732385,50.840714</coordinates></Point></Placemark><Placemark><name>All Star Family Center</name><description><![CDATA[<a href="http://dev.dojolist/dojo/All Star Family Center">View Details</a>]]></description><Point><coordinates>-77.307572,25.025690</coordinates></Point></Placemark><Placemark><name>Ridgewood Judo</name><description><![CDATA[<a href="http://dev.dojolist/dojo/Ridgewood Judo">View Details</a>]]></description><Point><coordinates>-74.117310,40.981874</coordinates></Point></Placemark><Placemark><name>Portland Judo Club</name><description><![CDATA[<a href="http://dev.dojolist/dojo/Portland Judo Club">View Details</a>]]></description><Point><coordinates>-1.135508,52.955942</coordinates></Point></Placemark><Placemark><name>Blau-Wei Hollage</name><description><![CDATA[<a href="http://dev.dojolist/dojo/Blau-Wei Hollage">View Details</a>]]></description><Point><coordinates>7.978842,52.343625</coordinates></Point></Placemark><Placemark><name>Steveston Judo Club</name><description><![CDATA[<a href="http://dev.dojolist/dojo/Steveston Judo Club">View Details</a>]]></description><Point><coordinates>-123.177627,49.125938</coordinates></Point></Placemark><Placemark><name>SouthSide Dojo</name><description><![CDATA[<a href="http://dev.dojolist/dojo/SouthSide Dojo">View Details</a>]]></description><Point><coordinates>-85.561877,42.192694</coordinates></Point></Placemark><Placemark><name>Delta Kaigan Judo</name><description><![CDATA[<a href="http://dev.dojolist/dojo/Delta Kaigan Judo">View Details</a>]]></description><Point><coordinates>-122.935405,49.155234</coordinates></Point></Placemark><Placemark><name>Seinen Judo Club</name><description><![CDATA[<a href="http://dev.dojolist/dojo/Seinen Judo Club">View Details</a>]]></description><Point><coordinates>-122.908568,49.156364</coordinates></Point></Placemark><Placemark><name>Temecula Valley Judo</name><description><![CDATA[<a href="http://dev.dojolist/dojo/Temecula Valley Judo">View Details</a>]]></description><Point><coordinates>-117.205002,33.555183</coordinates></Point></Placemark><Placemark><name>Tikkurilan Judokat</name><description><![CDATA[<a href="http://dev.dojolist/dojo/Tikkurilan Judokat">View Details</a>]]></description><Point><coordinates>25.029087,60.299360</coordinates></Point></Placemark><Placemark><name>TSV Unterhaching</name><description><![CDATA[<a href="http://dev.dojolist/dojo/TSV Unterhaching">View Details</a>]]></description><Point><coordinates>11.614780,48.060758</coordinates></Point></Placemark><Placemark><name>TSV Crailsheim</name><description><![CDATA[<a href="http://dev.dojolist/dojo/TSV Crailsheim">View Details</a>]]></description><Point><coordinates>10.036145,49.137656</coordinates></Point></Placemark><Placemark><name>San Francisco Judo Institute</name><description><![CDATA[<a href="http://dev.dojolist/dojo/San Francisco Judo Institute">View Details</a>]]></description><Point><coordinates>-122.493353,37.742430</coordinates></Point></Placemark><Placemark><name>Hendersons karate and Judo Academy</name><description><![CDATA[<a href="http://dev.dojolist/dojo/Hendersons karate and Judo Academy">View Details</a>]]></description><Point><coordinates>-88.198242,40.279526</coordinates></Point></Placemark><Placemark><name>Judoclub Leipzig Nordanlage</name><description><![CDATA[<a href="http://dev.dojolist/dojo/Judoclub Leipzig Nordanlage">View Details</a>]]></description><Point><coordinates>12.359619,51.261915</coordinates></Point></Placemark><Placemark><name>DJK Ingolstadt</name><description><![CDATA[<a href="http://dev.dojolist/dojo/DJK Ingolstadt">View Details</a>]]></description><Point><coordinates>11.423196,48.746526</coordinates></Point></Placemark><Placemark><name>Judo Club Hajime Kerpen-Brggen</name><description><![CDATA[<a href="http://dev.dojolist/dojo/Judo Club Hajime Kerpen-Brggen">View Details</a>]]></description><Point><coordinates>6.764574,50.850655</coordinates></Point></Placemark><Placemark><name>Frlunda Judoklubb</name><description><![CDATA[<a href="http://dev.dojolist/dojo/Frlunda Judoklubb">View Details</a>]]></description><Point><coordinates>11.923100,57.644600</coordinates></Point></Placemark><Placemark><name>Frvi Judo</name><description><![CDATA[<a href="http://dev.dojolist/dojo/Frvi Judo">View Details</a>]]></description><Point><coordinates>15.355700,59.470100</coordinates></Point></Placemark><Placemark><name>Frgelanda Judoklubb</name><description><![CDATA[<a href="http://dev.dojolist/dojo/Frgelanda Judoklubb">View Details</a>]]></description><Point><coordinates>12.060800,58.569700</coordinates></Point></Placemark><Placemark><name>Hammar Judoklubb</name><description><![CDATA[<a href="http://dev.dojolist/dojo/Hammar Judoklubb">View Details</a>]]></description><Point><coordinates>13.539700,59.304700</coordinates></Point></Placemark><Placemark><name>Gtene Judo</name><description><![CDATA[<a href="http://dev.dojolist/dojo/Gtene Judo">View Details</a>]]></description><Point><coordinates>13.477900,58.526800</coordinates></Point></Placemark><Placemark><name>Gteborgs Judoklubb</name><description><![CDATA[<a href="http://dev.dojolist/dojo/Gteborgs Judoklubb">View Details</a>]]></description><Point><coordinates>11.940500,57.698600</coordinates></Point></Placemark><Placemark><name>Gteborg - JK Kano</name><description><![CDATA[<a href="http://dev.dojolist/dojo/Gteborg - JK Kano">View Details</a>]]></description><Point><coordinates>11.975500,57.698900</coordinates></Point></Placemark><Placemark><name>Gvle Tjder</name><description><![CDATA[<a href="http://dev.dojolist/dojo/Gvle Tjder">View Details</a>]]></description><Point><coordinates>17.116200,60.691400</coordinates></Point></Placemark><Placemark><name>Gvle Judo Club</name><description><![CDATA[<a href="http://dev.dojolist/dojo/Gvle Judo Club">View Details</a>]]></description><Point><coordinates>17.175200,60.659400</coordinates></Point></Placemark><Placemark><name>Eker Judoklubb</name><description><![CDATA[<a href="http://dev.dojolist/dojo/Eker Judoklubb">View Details</a>]]></description><Point><coordinates>17.716500,59.288300</coordinates></Point></Placemark><Placemark><name>Blsta Judoklubb</name><description><![CDATA[<a href="http://dev.dojolist/dojo/Blsta Judoklubb">View Details</a>]]></description><Point><coordinates>17.538700,59.560200</coordinates></Point></Placemark><Placemark><name>Bors Judoklubb</name><description><![CDATA[<a href="http://dev.dojolist/dojo/Bors Judoklubb">View Details</a>]]></description><Point><coordinates>12.931500,57.720100</coordinates></Point></Placemark><Placemark><name>Borlnge Judo Club</name><description><![CDATA[<a href="http://dev.dojolist/dojo/Borlnge Judo Club">View Details</a>]]></description><Point><coordinates>15.404300,60.472600</coordinates></Point></Placemark><Placemark><name>Hgdalens Judoklubb</name><description><![CDATA[<a href="http://dev.dojolist/dojo/Hgdalens Judoklubb">View Details</a>]]></description><Point><coordinates>18.041700,59.264400</coordinates></Point></Placemark><Placemark><name>IF Aktiv Ungdom i Liding</name><description><![CDATA[<a href="http://dev.dojolist/dojo/IF Aktiv Ungdom i Liding">View Details</a>]]></description><Point><coordinates>18.156800,59.374200</coordinates></Point></Placemark><Placemark><name>IF Jrflla Judo</name><description><![CDATA[<a href="http://dev.dojolist/dojo/IF Jrflla Judo">View Details</a>]]></description><Point><coordinates>17.838100,59.417100</coordinates></Point></Placemark><Placemark><name>IK Sdra Judo, Farstahallen</name><description><![CDATA[<a href="http://dev.dojolist/dojo/IK Sdra Judo, Farstahallen">View Details</a>]]></description><Point><coordinates>18.084900,59.239300</coordinates></Point></Placemark><Placemark><name>IK Sdra Judo, Skarpnck</name><description><![CDATA[<a href="http://dev.dojolist/dojo/IK Sdra Judo, Skarpnck">View Details</a>]]></description><Point><coordinates>18.143400,59.267400</coordinates></Point></Placemark><Placemark><name>IK Sdra Judo, Torvallahallen</name><description><![CDATA[<a href="http://dev.dojolist/dojo/IK Sdra Judo, Torvallahallen">View Details</a>]]></description><Point><coordinates>18.155900,59.166100</coordinates></Point></Placemark><Placemark><name>IK Vstra Mlndal</name><description><![CDATA[<a href="http://dev.dojolist/dojo/IK Vstra Mlndal">View Details</a>]]></description><Point><coordinates>11.991600,57.661600</coordinates></Point></Placemark><Placemark><name>Jrflla Budoklubb</name><description><![CDATA[<a href="http://dev.dojolist/dojo/Jrflla Budoklubb">View Details</a>]]></description><Point><coordinates>17.834900,59.427000</coordinates></Point></Placemark><Placemark><name>Jnkpings Judoklubb</name><description><![CDATA[<a href="http://dev.dojolist/dojo/Jnkpings Judoklubb">View Details</a>]]></description><Point><coordinates>14.206600,57.782400</coordinates></Point></Placemark><Placemark><name>Kllan i Finspng</name><description><![CDATA[<a href="http://dev.dojolist/dojo/Kllan i Finspng">View Details</a>]]></description><Point><coordinates>15.808400,58.714200</coordinates></Point></Placemark><Placemark><name>Kpings Judoklubb</name><description><![CDATA[<a href="http://dev.dojolist/dojo/Kpings Judoklubb">View Details</a>]]></description><Point><coordinates>15.993500,59.518000</coordinates></Point></Placemark><Placemark><name>Lidkpings Budoklubb</name><description><![CDATA[<a href="http://dev.dojolist/dojo/Lidkpings Budoklubb">View Details</a>]]></description><Point><coordinates>13.147200,58.496200</coordinates></Point></Placemark><Placemark><name>Linkping Judo</name><description><![CDATA[<a href="http://dev.dojolist/dojo/Linkping Judo">View Details</a>]]></description><Point><coordinates>15.634700,58.411700</coordinates></Point></Placemark><Placemark><name>Lule Judoklubb</name><description><![CDATA[<a href="http://dev.dojolist/dojo/Lule Judoklubb">View Details</a>]]></description><Point><coordinates>22.150400,65.587800</coordinates></Point></Placemark><Placemark><name>Lngshyttans Judoklubb</name><description><![CDATA[<a href="http://dev.dojolist/dojo/Lngshyttans Judoklubb">View Details</a>]]></description><Point><coordinates>16.026700,60.446900</coordinates></Point></Placemark><Placemark><name>Malm Budokan Judoklubb</name><description><![CDATA[<a href="http://dev.dojolist/dojo/Malm Budokan Judoklubb">View Details</a>]]></description><Point><coordinates>13.000100,55.597400</coordinates></Point></Placemark><Placemark><name>Mrsta Judoklubb</name><description><![CDATA[<a href="http://dev.dojolist/dojo/Mrsta Judoklubb">View Details</a>]]></description><Point><coordinates>17.826600,59.617700</coordinates></Point></Placemark><Placemark><name>Mlndals Judoklubb</name><description><![CDATA[<a href="http://dev.dojolist/dojo/Mlndals Judoklubb">View Details</a>]]></description><Point><coordinates>11.991600,57.661600</coordinates></Point></Placemark><Placemark><name>Mlntorps IK Judo</name><description><![CDATA[<a href="http://dev.dojolist/dojo/Mlntorps IK Judo">View Details</a>]]></description><Point><coordinates>16.226500,59.615700</coordinates></Point></Placemark><Placemark><name>Norrkpings judoklubb</name><description><![CDATA[<a href="http://dev.dojolist/dojo/Norrkpings judoklubb">View Details</a>]]></description><Point><coordinates>16.135400,58.597600</coordinates></Point></Placemark><Placemark><name>Norrtlje Judoklubb</name><description><![CDATA[<a href="http://dev.dojolist/dojo/Norrtlje Judoklubb">View Details</a>]]></description><Point><coordinates>18.720800,59.765300</coordinates></Point></Placemark><Placemark><name>Nykpings judoklubb</name><description><![CDATA[<a href="http://dev.dojolist/dojo/Nykpings judoklubb">View Details</a>]]></description><Point><coordinates>17.043400,58.750200</coordinates></Point></Placemark><Placemark><name>Olofstrms Judoklubb</name><description><![CDATA[<a href="http://dev.dojolist/dojo/Olofstrms Judoklubb">View Details</a>]]></description><Point><coordinates>14.530400,56.270600</coordinates></Point></Placemark><Placemark><name>Oxelsunds Judoklubb</name><description><![CDATA[<a href="http://dev.dojolist/dojo/Oxelsunds Judoklubb">View Details</a>]]></description><Point><coordinates>17.080700,58.674000</coordinates></Point></Placemark><Placemark><name>Pite Judoklubb</name><description><![CDATA[<a href="http://dev.dojolist/dojo/Pite Judoklubb">View Details</a>]]></description><Point><coordinates>21.483200,65.326600</coordinates></Point></Placemark><Placemark><name>Rttviks Judoklubb</name><description><![CDATA[<a href="http://dev.dojolist/dojo/Rttviks Judoklubb">View Details</a>]]></description><Point><coordinates>15.146800,60.895800</coordinates></Point></Placemark><Placemark><name>Saltsj Judoklubb</name><description><![CDATA[<a href="http://dev.dojolist/dojo/Saltsj Judoklubb">View Details</a>]]></description><Point><coordinates>18.395500,59.335800</coordinates></Point></Placemark><Placemark><name>Skellefte Judoklubb</name><description><![CDATA[<a href="http://dev.dojolist/dojo/Skellefte Judoklubb">View Details</a>]]></description><Point><coordinates>20.970100,64.755100</coordinates></Point></Placemark><Placemark><name>Skvde Judoklubb</name><description><![CDATA[<a href="http://dev.dojolist/dojo/Skvde Judoklubb">View Details</a>]]></description><Point><coordinates>13.836700,58.383900</coordinates></Point></Placemark><Placemark><name>Sderhamns Judoklubb</name><description><![CDATA[<a href="http://dev.dojolist/dojo/Sderhamns Judoklubb">View Details</a>]]></description><Point><coordinates>17.069000,61.307700</coordinates></Point></Placemark><Placemark><name>Sderkpings Judoklubb</name><description><![CDATA[<a href="http://dev.dojolist/dojo/Sderkpings Judoklubb">View Details</a>]]></description><Point><coordinates>16.309100,58.477800</coordinates></Point></Placemark><Placemark><name>Sdertlje Judoklubb</name><description><![CDATA[<a href="http://dev.dojolist/dojo/Sdertlje Judoklubb">View Details</a>]]></description><Point><coordinates>17.663600,59.204100</coordinates></Point></Placemark><Placemark><name>Tyres Judo  and  Jujutsuklubb</name><description><![CDATA[<a href="http://dev.dojolist/dojo/Tyres Judo  and  Jujutsuklubb">View Details</a>]]></description><Point><coordinates>18.207300,59.220800</coordinates></Point></Placemark><Placemark><name>Ume Judoklubb</name><description><![CDATA[<a href="http://dev.dojolist/dojo/Ume Judoklubb">View Details</a>]]></description><Point><coordinates>20.286200,63.828700</coordinates></Point></Placemark><Placemark><name>Upplands Vsby Judoklubb</name><description><![CDATA[<a href="http://dev.dojolist/dojo/Upplands Vsby Judoklubb">View Details</a>]]></description><Point><coordinates>17.899500,59.517300</coordinates></Point></Placemark><Placemark><name>Vllingby Budoklubb</name><description><![CDATA[<a href="http://dev.dojolist/dojo/Vllingby Budoklubb">View Details</a>]]></description><Point><coordinates>17.880500,59.364300</coordinates></Point></Placemark><Placemark><name>Vstbo Judoklubb</name><description><![CDATA[<a href="http://dev.dojolist/dojo/Vstbo Judoklubb">View Details</a>]]></description><Point><coordinates>13.536200,57.305100</coordinates></Point></Placemark><Placemark><name>Vsterviks Judoklubb</name><description><![CDATA[<a href="http://dev.dojolist/dojo/Vsterviks Judoklubb">View Details</a>]]></description><Point><coordinates>16.621600,57.754300</coordinates></Point></Placemark><Placemark><name>Vsters Judoklubb</name><description><![CDATA[<a href="http://dev.dojolist/dojo/Vsters Judoklubb">View Details</a>]]></description><Point><coordinates>16.608600,59.614100</coordinates></Point></Placemark><Placemark><name>Vsters Judoskola</name><description><![CDATA[<a href="http://dev.dojolist/dojo/Vsters Judoskola">View Details</a>]]></description><Point><coordinates>16.539000,59.606700</coordinates></Point></Placemark><Placemark><name>Vxj Judoklubb</name><description><![CDATA[<a href="http://dev.dojolist/dojo/Vxj Judoklubb">View Details</a>]]></description><Point><coordinates>14.763400,56.887400</coordinates></Point></Placemark><Placemark><name>nge Judoklubb</name><description><![CDATA[<a href="http://dev.dojolist/dojo/nge Judoklubb">View Details</a>]]></description><Point><coordinates>15.657200,62.518900</coordinates></Point></Placemark><Placemark><name>tvidabergs Judoklubb</name><description><![CDATA[<a href="http://dev.dojolist/dojo/tvidabergs Judoklubb">View Details</a>]]></description><Point><coordinates>16.003100,58.196500</coordinates></Point></Placemark><Placemark><name>lmhults Judoklubb</name><description><![CDATA[<a href="http://dev.dojolist/dojo/lmhults Judoklubb">View Details</a>]]></description><Point><coordinates>14.156600,56.552800</coordinates></Point></Placemark><Placemark><name>ngelholm Judo</name><description><![CDATA[<a href="http://dev.dojolist/dojo/ngelholm Judo">View Details</a>]]></description><Point><coordinates>12.856900,56.248300</coordinates></Point></Placemark><Placemark><name>rebro Judo</name><description><![CDATA[<a href="http://dev.dojolist/dojo/rebro Judo">View Details</a>]]></description><Point><coordinates>15.215400,59.279000</coordinates></Point></Placemark><Placemark><name>stersunds Judoklubb</name><description><![CDATA[<a href="http://dev.dojolist/dojo/stersunds Judoklubb">View Details</a>]]></description><Point><coordinates>14.654600,63.189200</coordinates></Point></Placemark><Placemark><name>Bollns JK</name><description><![CDATA[<a href="http://dev.dojolist/dojo/Bollns JK">View Details</a>]]></description><Point><coordinates>16.386400,61.349400</coordinates></Point></Placemark><Placemark><name>Alingss Judoklubb</name><description><![CDATA[<a href="http://dev.dojolist/dojo/Alingss Judoklubb">View Details</a>]]></description><Point><coordinates>12.532600,57.940000</coordinates></Point></Placemark><Placemark><name>Shoorikan Jud Club</name><description><![CDATA[<a href="http://dev.dojolist/dojo/Shoorikan Jud Club">View Details</a>]]></description><Point><coordinates>-46.636405,-23.589200</coordinates></Point></Placemark></Document></kml>