<?xml version="1.0" encoding="UTF-8"?>
    <kml xmlns="http://www.opengis.net/kml/2.2">
	<!-- The data created by DojoList by
	<a xmlns:cc="http://creativecommons.org/ns#"
	href="http://github.com/lancew/DojoList"
	property="cc:attributionName"
	rel="cc:attributionURL">Lance Wicks</a>
	 is licensed under a <a rel="license"
	 href="http://creativecommons.org/licenses/by-nc-sa/2.0/uk/">
	 Creative Commons Attribution-Noncommercial-Share Alike 2.0
	 UK: England &amp; Wales License</a>.
	 Some data imported from www.judoworldmap.com by
	 Ulrich Wisser under a Creative Commons NC-SA License. -->
    <Document>
    <name>Dojo List</name><Placemark><name>Alresford Judo Club</name><description><![CDATA[<a href="http://dev.dojolist/dojo/Alresford Judo Club">View Details</a>]]></description><Point><coordinates>-1.1612248420715332,51.08490441779596</coordinates></Point></Placemark><Placemark><name>Alton Judo Club</name><description><![CDATA[<a href="http://dev.dojolist/dojo/Alton Judo Club">View Details</a>]]></description><Point><coordinates>-0.9942,51.13735</coordinates></Point></Placemark><Placemark><name>Applemore Judokwai</name><description><![CDATA[<a href="http://dev.dojolist/dojo/Applemore Judokwai">View Details</a>]]></description><Point><coordinates> -1.43212,50.86285</coordinates></Point></Placemark><Placemark><name>AWE Judo Club</name><description><![CDATA[<a href="http://dev.dojolist/dojo/AWE Judo Club">View Details</a>]]></description><Point><coordinates>-1.1537209,51.3544589</coordinates></Point></Placemark><Placemark><name>Basingstoke Judo Club</name><description><![CDATA[<a href="http://dev.dojolist/dojo/Basingstoke Judo Club">View Details</a>]]></description><Point><coordinates>-1.147398,51.2732846</coordinates></Point></Placemark><Placemark><name>Breamore School Judo CLub</name><description><![CDATA[<a href="http://dev.dojolist/dojo/Breamore School Judo CLub">View Details</a>]]></description><Point><coordinates>-1.7884699,50.9286499</coordinates></Point></Placemark><Placemark><name>Brighton Hill Judo Club</name><description><![CDATA[<a href="http://dev.dojolist/dojo/Brighton Hill Judo Club">View Details</a>]]></description><Point><coordinates>-1.1192596,51.2395196</coordinates></Point></Placemark><Placemark><name>Cosham CA Judo Club</name><description><![CDATA[<a href="http://dev.dojolist/dojo/Cosham CA Judo Club">View Details</a>]]></description><Point><coordinates>-1.0744455,50.8485036</coordinates></Point></Placemark><Placemark><name>Court Lane Judo Club Cosham Portsmouth Hants </name><description><![CDATA[<a href="http://dev.dojolist/dojo/Court Lane Judo Club Cosham Portsmouth Hants ">View Details</a>]]></description><Point><coordinates>-1.0363021,50.8462461</coordinates></Point></Placemark><Placemark><name>Crofton Judo Club</name><description><![CDATA[<a href="http://dev.dojolist/dojo/Crofton Judo Club">View Details</a>]]></description><Point><coordinates>-1.2089532,50.8273479</coordinates></Point></Placemark><Placemark><name>Devonshire Infants</name><description><![CDATA[<a href="http://dev.dojolist/dojo/Devonshire Infants">View Details</a>]]></description><Point><coordinates>-1.071084,50.7908403</coordinates></Point></Placemark><Placemark><name>Eastleigh Judokwai</name><description><![CDATA[<a href="http://dev.dojolist/dojo/Eastleigh Judokwai">View Details</a>]]></description><Point><coordinates>-1.3696861267089843,50.96923814278805</coordinates></Point></Placemark><Placemark><name>Fernhurst Junior School CSJ</name><description><![CDATA[<a href="http://dev.dojolist/dojo/Fernhurst Junior School CSJ">View Details</a>]]></description><Point><coordinates>-1.071307,50.790317</coordinates></Point></Placemark><Placemark><name>Fleet and Frogmore Judo Club</name><description><![CDATA[<a href="http://dev.dojolist/dojo/Fleet and Frogmore Judo Club">View Details</a>]]></description><Point><coordinates>-0.813267,51.33672</coordinates></Point></Placemark><Placemark><name>Fleming Park Judo Club</name><description><![CDATA[<a href="http://dev.dojolist/dojo/Fleming Park Judo Club">View Details</a>]]></description><Point><coordinates>-1.3696861267089843,50.96956244649902</coordinates></Point></Placemark><Placemark><name>Fort Purbrook Judo Club</name><description><![CDATA[<a href="http://dev.dojolist/dojo/Fort Purbrook Judo Club">View Details</a>]]></description><Point><coordinates>-1.049812,50.8532733</coordinates></Point></Placemark><Placemark><name>Gosport Judokwai</name><description><![CDATA[<a href="http://dev.dojolist/dojo/Gosport Judokwai">View Details</a>]]></description><Point><coordinates>-1.1398851871490479,50.799194843596574</coordinates></Point></Placemark><Placemark><name>Havant Judo Kwai</name><description><![CDATA[<a href="http://dev.dojolist/dojo/Havant Judo Kwai">View Details</a>]]></description><Point><coordinates>-0.9855933,50.8566072</coordinates></Point></Placemark><Placemark><name>Holbrook Judo Club </name><description><![CDATA[<a href="http://dev.dojolist/dojo/Holbrook Judo Club ">View Details</a>]]></description><Point><coordinates>-1.1290701,50.7946636</coordinates></Point></Placemark><Placemark><name>Holbrook Sarisbury Green Judo Club </name><description><![CDATA[<a href="http://dev.dojolist/dojo/Holbrook Sarisbury Green Judo Club ">View Details</a>]]></description><Point><coordinates>-1.2873586,50.8732661</coordinates></Point></Placemark><Placemark><name>Jersey Judo Club</name><description><![CDATA[<a href="http://dev.dojolist/dojo/Jersey Judo Club">View Details</a>]]></description><Point><coordinates>-2.0570285,49.1741873</coordinates></Point></Placemark><Placemark><name>Kiaisan Judo Club</name><description><![CDATA[<a href="http://dev.dojolist/dojo/Kiaisan Judo Club">View Details</a>]]></description><Point><coordinates>-0.86371,51.27821</coordinates></Point></Placemark><Placemark><name>Kings Court School</name><description><![CDATA[<a href="http://dev.dojolist/dojo/Kings Court School">View Details</a>]]></description><Point><coordinates>-1.0121384,50.9063197</coordinates></Point></Placemark><Placemark><name>Langstone School </name><description><![CDATA[<a href="http://dev.dojolist/dojo/Langstone School ">View Details</a>]]></description><Point><coordinates>-1.057123,50.806408</coordinates></Point></Placemark><Placemark><name>Matsumachi Judo Club</name><description><![CDATA[<a href="http://dev.dojolist/dojo/Matsumachi Judo Club">View Details</a>]]></description><Point><coordinates>-1.7675213,50.7348817</coordinates></Point></Placemark><Placemark><name>Meridian Judo Club</name><description><![CDATA[<a href="http://dev.dojolist/dojo/Meridian Judo Club">View Details</a>]]></description><Point><coordinates>-0.97819,50.829374</coordinates></Point></Placemark><Placemark><name>New Forest Park Judo Club </name><description><![CDATA[<a href="http://dev.dojolist/dojo/New Forest Park Judo Club ">View Details</a>]]></description><Point><coordinates>-1.5267763,50.8877193</coordinates></Point></Placemark><Placemark><name>Oaklands Judo Club</name><description><![CDATA[<a href="http://dev.dojolist/dojo/Oaklands Judo Club">View Details</a>]]></description><Point><coordinates>-1.195136,50.907504</coordinates></Point></Placemark><Placemark><name>Judo Club Osaka</name><description><![CDATA[<a href="http://dev.dojolist/dojo/Judo Club Osaka">View Details</a>]]></description><Point><coordinates>-0.741952,51.238409</coordinates></Point></Placemark><Placemark><name>Judo Club Osaka Hawley</name><description><![CDATA[<a href="http://dev.dojolist/dojo/Judo Club Osaka Hawley">View Details</a>]]></description><Point><coordinates>-0.76233,51.311743</coordinates></Point></Placemark><Placemark><name>Paul Jones School of Judo </name><description><![CDATA[<a href="http://dev.dojolist/dojo/Paul Jones School of Judo ">View Details</a>]]></description><Point><coordinates>-1.071954,51.259141</coordinates></Point></Placemark><Placemark><name>Portsmouth Judo Club</name><description><![CDATA[<a href="http://dev.dojolist/dojo/Portsmouth Judo Club">View Details</a>]]></description><Point><coordinates>-1.0744455,50.8485036</coordinates></Point></Placemark><Placemark><name>Portsmouth Grammar School Judo Club</name><description><![CDATA[<a href="http://dev.dojolist/dojo/Portsmouth Grammar School Judo Club">View Details</a>]]></description><Point><coordinates>-1.1028953,50.78973</coordinates></Point></Placemark><Placemark><name>Premier School of Judo</name><description><![CDATA[<a href="http://dev.dojolist/dojo/Premier School of Judo">View Details</a>]]></description><Point><coordinates>-1.310752,50.90756</coordinates></Point></Placemark><Placemark><name>Priory Judokwai C.S.J</name><description><![CDATA[<a href="http://dev.dojolist/dojo/Priory Judokwai C.S.J">View Details</a>]]></description><Point><coordinates>-1.075378,50.790801</coordinates></Point></Placemark><Placemark><name>Ringwood and Fordingbridge Judo Club</name><description><![CDATA[<a href="http://dev.dojolist/dojo/Ringwood and Fordingbridge Judo Club">View Details</a>]]></description><Point><coordinates>-1.7823128,50.8307017</coordinates></Point></Placemark><Placemark><name>River Park Judo Club</name><description><![CDATA[<a href="http://dev.dojolist/dojo/River Park Judo Club">View Details</a>]]></description><Point><coordinates>-1.312422,51.067304</coordinates></Point></Placemark><Placemark><name>Ryde Judo Club</name><description><![CDATA[<a href="http://dev.dojolist/dojo/Ryde Judo Club">View Details</a>]]></description><Point><coordinates>-1.161966,50.729914</coordinates></Point></Placemark><Placemark><name>Scorpion Judo Club</name><description><![CDATA[<a href="http://dev.dojolist/dojo/Scorpion Judo Club">View Details</a>]]></description><Point><coordinates>-1.5616608,51.1598698</coordinates></Point></Placemark><Placemark><name>Southampton University J.C</name><description><![CDATA[<a href="http://dev.dojolist/dojo/Southampton University J.C">View Details</a>]]></description><Point><coordinates>-1.4002,50.9307</coordinates></Point></Placemark><Placemark><name>Southern Judokan Cowplain</name><description><![CDATA[<a href="http://dev.dojolist/dojo/Southern Judokan Cowplain">View Details</a>]]></description><Point><coordinates>-1.014772,50.893469</coordinates></Point></Placemark><Placemark><name>Southern Judokan Bourne</name><description><![CDATA[<a href="http://dev.dojolist/dojo/Southern Judokan Bourne">View Details</a>]]></description><Point><coordinates>-0.9371971,50.8478106</coordinates></Point></Placemark><Placemark><name>Southern Judokan Rowlands Castle</name><description><![CDATA[<a href="http://dev.dojolist/dojo/Southern Judokan Rowlands Castle">View Details</a>]]></description><Point><coordinates>-0.965811,50.882137</coordinates></Point></Placemark><Placemark><name>Stamshaw School Judo</name><description><![CDATA[<a href="http://dev.dojolist/dojo/Stamshaw School Judo">View Details</a>]]></description><Point><coordinates>-1.0805774,50.8201965</coordinates></Point></Placemark><Placemark><name>Summit Judo Club</name><description><![CDATA[<a href="http://dev.dojolist/dojo/Summit Judo Club">View Details</a>]]></description><Point><coordinates>-1.0526527,51.2846488</coordinates></Point></Placemark><Placemark><name>Torakan Judo Club</name><description><![CDATA[<a href="http://dev.dojolist/dojo/Torakan Judo Club">View Details</a>]]></description><Point><coordinates>-2.1936913,49.1843798</coordinates></Point></Placemark><Placemark><name>Wimbourne School</name><description><![CDATA[<a href="http://dev.dojolist/dojo/Wimbourne School">View Details</a>]]></description><Point><coordinates>-1.0735694,50.7874037</coordinates></Point></Placemark><Placemark><name>Winchester Judo Club</name><description><![CDATA[<a href="http://dev.dojolist/dojo/Winchester Judo Club">View Details</a>]]></description><Point><coordinates>-1.316494,51.068964</coordinates></Point></Placemark><Placemark><name>Winchester College Judo Club</name><description><![CDATA[<a href="http://dev.dojolist/dojo/Winchester College Judo Club">View Details</a>]]></description><Point><coordinates>-1.312632,51.058442</coordinates></Point></Placemark><Placemark><name>Widnes Judo Club</name><description><![CDATA[<a href="http://dev.dojolist/dojo/Widnes Judo Club">View Details</a>]]></description><Point><coordinates>-2.7328855,53.3621218</coordinates></Point></Placemark><Placemark><name>OKC Defensive Tactics Judo</name><description><![CDATA[<a href="http://dev.dojolist/dojo/OKC Defensive Tactics Judo">View Details</a>]]></description><Point><coordinates>-97.4817743,35.6089244</coordinates></Point></Placemark><Placemark><name>Watanabe Kwai Judo Club</name><description><![CDATA[<a href="http://dev.dojolist/dojo/Watanabe Kwai Judo Club">View Details</a>]]></description><Point><coordinates>-2.8409645,54.9307385</coordinates></Point></Placemark><Placemark><name>Bedminster Judokwai</name><description><![CDATA[<a href="http://dev.dojolist/dojo/Bedminster Judokwai">View Details</a>]]></description><Point><coordinates>-2.5919023,51.4553129</coordinates></Point></Placemark><Placemark><name>Barnet Judo</name><description><![CDATA[<a href="http://dev.dojolist/dojo/Barnet Judo">View Details</a>]]></description><Point><coordinates>-0.2186881,51.667417</coordinates></Point></Placemark><Placemark><name>Bath Judo Club</name><description><![CDATA[<a href="http://dev.dojolist/dojo/Bath Judo Club">View Details</a>]]></description><Point><coordinates>-2.344943,51.397774</coordinates></Point></Placemark><Placemark><name>Bath Judo Kwai</name><description><![CDATA[<a href="http://dev.dojolist/dojo/Bath Judo Kwai">View Details</a>]]></description><Point><coordinates>-2.352875,51.3809</coordinates></Point></Placemark><Placemark><name>Shaftesbury Judo Club</name><description><![CDATA[<a href="http://dev.dojolist/dojo/Shaftesbury Judo Club">View Details</a>]]></description><Point><coordinates>-2.196868,51.008215</coordinates></Point></Placemark><Placemark><name>Apollo Judo Club</name><description><![CDATA[<a href="http://dev.dojolist/dojo/Apollo Judo Club">View Details</a>]]></description><Point><coordinates>-2.516741,51.850827</coordinates></Point></Placemark><Placemark><name>Keisen Judo Club</name><description><![CDATA[<a href="http://dev.dojolist/dojo/Keisen Judo Club">View Details</a>]]></description><Point><coordinates>-0.005624,51.12642</coordinates></Point></Placemark><Placemark><name>EDGE Judo</name><description><![CDATA[<a href="http://dev.dojolist/dojo/EDGE Judo">View Details</a>]]></description><Point><coordinates>0.107459,51.754264</coordinates></Point></Placemark><Placemark><name>Encino Judo Club</name><description><![CDATA[<a href="http://dev.dojolist/dojo/Encino Judo Club">View Details</a>]]></description><Point><coordinates>-119.187515,34.201044</coordinates></Point></Placemark><Placemark><name></name><description><![CDATA[<a href="http://dev.dojolist/dojo/">View Details</a>]]></description><Point><coordinates>,</coordinates></Point></Placemark><Placemark><name>Redbridge Judo Club</name><description><![CDATA[<a href="http://dev.dojolist/dojo/Redbridge Judo Club">View Details</a>]]></description><Point><coordinates>0.102809,51.572218</coordinates></Point></Placemark><Placemark><name>Judo Club Hajime</name><description><![CDATA[<a href="http://dev.dojolist/dojo/Judo Club Hajime">View Details</a>]]></description><Point><coordinates>1.5218156,42.5075314</coordinates></Point></Placemark><Placemark><name>Obukan Dojo</name><description><![CDATA[<a href="http://dev.dojolist/dojo/Obukan Dojo">View Details</a>]]></description><Point><coordinates>-122.673168,45.569592</coordinates></Point></Placemark><Placemark><name>Coffs Harbour Judo Club</name><description><![CDATA[<a href="http://dev.dojolist/dojo/Coffs Harbour Judo Club">View Details</a>]]></description><Point><coordinates>153.113344,-30.281343</coordinates></Point></Placemark><Placemark><name>TSV Freudenstadt 1862 e.V.</name><description><![CDATA[<a href="http://dev.dojolist/dojo/TSV Freudenstadt 1862 e.V.">View Details</a>]]></description><Point><coordinates>8.418993,48.468475</coordinates></Point></Placemark><Placemark><name>Burnaby Judo Club</name><description><![CDATA[<a href="http://dev.dojolist/dojo/Burnaby Judo Club">View Details</a>]]></description><Point><coordinates>-122.996820,49.224083</coordinates></Point></Placemark><Placemark><name>Mudanshakwai Brechin Judo Club.</name><description><![CDATA[<a href="http://dev.dojolist/dojo/Mudanshakwai Brechin Judo Club.">View Details</a>]]></description><Point><coordinates>-2.655028,56.730744</coordinates></Point></Placemark><Placemark><name>Combat Judo Academy</name><description><![CDATA[<a href="http://dev.dojolist/dojo/Combat Judo Academy">View Details</a>]]></description><Point><coordinates>-73.471391,40.677432</coordinates></Point></Placemark><Placemark><name>SC Gröbenzell</name><description><![CDATA[<a href="http://dev.dojolist/dojo/SC Gröbenzell">View Details</a>]]></description><Point><coordinates>11.382802,48.192097</coordinates></Point></Placemark><Placemark><name>Jigoro Kano Maastricht</name><description><![CDATA[<a href="http://dev.dojolist/dojo/Jigoro Kano Maastricht">View Details</a>]]></description><Point><coordinates>5.732385,50.840714</coordinates></Point></Placemark><Placemark><name>All Star Family Center</name><description><![CDATA[<a href="http://dev.dojolist/dojo/All Star Family Center">View Details</a>]]></description><Point><coordinates>-77.307572,25.025690</coordinates></Point></Placemark><Placemark><name>Ridgewood Judo</name><description><![CDATA[<a href="http://dev.dojolist/dojo/Ridgewood Judo">View Details</a>]]></description><Point><coordinates>-74.117310,40.981874</coordinates></Point></Placemark><Placemark><name>Portland Judo Club</name><description><![CDATA[<a href="http://dev.dojolist/dojo/Portland Judo Club">View Details</a>]]></description><Point><coordinates>-1.135508,52.955942</coordinates></Point></Placemark><Placemark><name>Blau-Weiß Hollage</name><description><![CDATA[<a href="http://dev.dojolist/dojo/Blau-Weiß Hollage">View Details</a>]]></description><Point><coordinates>7.978842,52.343625</coordinates></Point></Placemark><Placemark><name>Steveston Judo Club</name><description><![CDATA[<a href="http://dev.dojolist/dojo/Steveston Judo Club">View Details</a>]]></description><Point><coordinates>-123.177627,49.125938</coordinates></Point></Placemark><Placemark><name>SouthSide Dojo</name><description><![CDATA[<a href="http://dev.dojolist/dojo/SouthSide Dojo">View Details</a>]]></description><Point><coordinates>-85.561877,42.192694</coordinates></Point></Placemark><Placemark><name>Delta Kaigan Judo</name><description><![CDATA[<a href="http://dev.dojolist/dojo/Delta Kaigan Judo">View Details</a>]]></description><Point><coordinates>-122.935405,49.155234</coordinates></Point></Placemark><Placemark><name>Seinen Judo Club</name><description><![CDATA[<a href="http://dev.dojolist/dojo/Seinen Judo Club">View Details</a>]]></description><Point><coordinates>-122.908568,49.156364</coordinates></Point></Placemark><Placemark><name>Temecula Valley Judo</name><description><![CDATA[<a href="http://dev.dojolist/dojo/Temecula Valley Judo">View Details</a>]]></description><Point><coordinates>-117.205002,33.555183</coordinates></Point></Placemark><Placemark><name>Tikkurilan Judokat</name><description><![CDATA[<a href="http://dev.dojolist/dojo/Tikkurilan Judokat">View Details</a>]]></description><Point><coordinates>25.029087,60.299360</coordinates></Point></Placemark><Placemark><name>TSV Unterhaching</name><description><![CDATA[<a href="http://dev.dojolist/dojo/TSV Unterhaching">View Details</a>]]></description><Point><coordinates>11.614780,48.060758</coordinates></Point></Placemark><Placemark><name>TSV Crailsheim</name><description><![CDATA[<a href="http://dev.dojolist/dojo/TSV Crailsheim">View Details</a>]]></description><Point><coordinates>10.036145,49.137656</coordinates></Point></Placemark><Placemark><name>San Francisco Judo Institute</name><description><![CDATA[<a href="http://dev.dojolist/dojo/San Francisco Judo Institute">View Details</a>]]></description><Point><coordinates>-122.493353,37.742430</coordinates></Point></Placemark><Placemark><name>Hendersons karate and Judo Academy</name><description><![CDATA[<a href="http://dev.dojolist/dojo/Hendersons karate and Judo Academy">View Details</a>]]></description><Point><coordinates>-88.198242,40.279526</coordinates></Point></Placemark><Placemark><name>Judoclub Leipzig Nordanlage</name><description><![CDATA[<a href="http://dev.dojolist/dojo/Judoclub Leipzig Nordanlage">View Details</a>]]></description><Point><coordinates>12.359619,51.261915</coordinates></Point></Placemark><Placemark><name>DJK Ingolstadt</name><description><![CDATA[<a href="http://dev.dojolist/dojo/DJK Ingolstadt">View Details</a>]]></description><Point><coordinates>11.423196,48.746526</coordinates></Point></Placemark><Placemark><name>Silicon Valley Judo</name><description><![CDATA[<a href="http://dev.dojolist/dojo/Silicon Valley Judo">View Details</a>]]></description><Point><coordinates>-121.904308,37.332736</coordinates></Point></Placemark><Placemark><name>DLT Welcome Mat Judo</name><description><![CDATA[<a href="http://dev.dojolist/dojo/DLT Welcome Mat Judo">View Details</a>]]></description><Point><coordinates>-94.331360,39.034120</coordinates></Point></Placemark><Placemark><name>Budo-Club Karlsruhe</name><description><![CDATA[<a href="http://dev.dojolist/dojo/Budo-Club Karlsruhe">View Details</a>]]></description><Point><coordinates>8.376861,49.012851</coordinates></Point></Placemark><Placemark><name>San Shi Judo Club</name><description><![CDATA[<a href="http://dev.dojolist/dojo/San Shi Judo Club">View Details</a>]]></description><Point><coordinates>-117.285115,33.187703</coordinates></Point></Placemark><Placemark><name>Judo Club Usurbil</name><description><![CDATA[<a href="http://dev.dojolist/dojo/Judo Club Usurbil">View Details</a>]]></description><Point><coordinates>-2.049934,43.2713821</coordinates></Point></Placemark><Placemark><name>Texas A and M University Judo</name><description><![CDATA[<a href="http://dev.dojolist/dojo/Texas A and M University Judo">View Details</a>]]></description><Point><coordinates>-96.339798,30.611147</coordinates></Point></Placemark><Placemark><name>Gulf Coast Judo</name><description><![CDATA[<a href="http://dev.dojolist/dojo/Gulf Coast Judo">View Details</a>]]></description><Point><coordinates>-88.775110,30.410634</coordinates></Point></Placemark><Placemark><name>WAT Stadlau</name><description><![CDATA[<a href="http://dev.dojolist/dojo/WAT Stadlau">View Details</a>]]></description><Point><coordinates>16.436191,48.247140</coordinates></Point></Placemark><Placemark><name>Sportschool van de Pol</name><description><![CDATA[<a href="http://dev.dojolist/dojo/Sportschool van de Pol">View Details</a>]]></description><Point><coordinates>5.663345,51.488946</coordinates></Point></Placemark><Placemark><name>Westlands Judo Club</name><description><![CDATA[<a href="http://dev.dojolist/dojo/Westlands Judo Club">View Details</a>]]></description><Point><coordinates>-2.164972,52.275274</coordinates></Point></Placemark><Placemark><name>Droitwich Spa Judo Kan</name><description><![CDATA[<a href="http://dev.dojolist/dojo/Droitwich Spa Judo Kan">View Details</a>]]></description><Point><coordinates>-2.157322,52.260764</coordinates></Point></Placemark><Placemark><name>TuSG Ritterhude JUDO</name><description><![CDATA[<a href="http://dev.dojolist/dojo/TuSG Ritterhude JUDO">View Details</a>]]></description><Point><coordinates>8.752515,53.179809</coordinates></Point></Placemark><Placemark><name>Wolverhampton Judo Club</name><description><![CDATA[<a href="http://dev.dojolist/dojo/Wolverhampton Judo Club">View Details</a>]]></description><Point><coordinates>-2.089462,52.596375</coordinates></Point></Placemark><Placemark><name>Kyoudai Judo Wellington</name><description><![CDATA[<a href="http://dev.dojolist/dojo/Kyoudai Judo Wellington">View Details</a>]]></description><Point><coordinates>148.944638,-32.553338</coordinates></Point></Placemark><Placemark><name>Croydon Judo club</name><description><![CDATA[<a href="http://dev.dojolist/dojo/Croydon Judo club">View Details</a>]]></description><Point><coordinates>-0.085466,51.381692</coordinates></Point></Placemark><Placemark><name>Judo Club Efringen-Kirchen e.V.</name><description><![CDATA[<a href="http://dev.dojolist/dojo/Judo Club Efringen-Kirchen e.V.">View Details</a>]]></description><Point><coordinates>7.558508,47.653363</coordinates></Point></Placemark><Placemark><name>University of Wolverhampton Judo Club</name><description><![CDATA[<a href="http://dev.dojolist/dojo/University of Wolverhampton Judo Club">View Details</a>]]></description><Point><coordinates>-2.005005,52.576350</coordinates></Point></Placemark><Placemark><name>Budo Club Malsch e.V.</name><description><![CDATA[<a href="http://dev.dojolist/dojo/Budo Club Malsch e.V.">View Details</a>]]></description><Point><coordinates>8.325121,48.883794</coordinates></Point></Placemark><Placemark><name>Vale Judo Club</name><description><![CDATA[<a href="http://dev.dojolist/dojo/Vale Judo Club">View Details</a>]]></description><Point><coordinates>-0.734389,52.678438</coordinates></Point></Placemark><Placemark><name>Warwick University Judo Club</name><description><![CDATA[<a href="http://dev.dojolist/dojo/Warwick University Judo Club">View Details</a>]]></description><Point><coordinates>-1.560874,52.380682</coordinates></Point></Placemark><Placemark><name>Walsumer Judo-Club</name><description><![CDATA[<a href="http://dev.dojolist/dojo/Walsumer Judo-Club">View Details</a>]]></description><Point><coordinates>6.736153,51.533523</coordinates></Point></Placemark><Placemark><name>VdS Nievenheim - Judoabteilung</name><description><![CDATA[<a href="http://dev.dojolist/dojo/VdS Nievenheim - Judoabteilung">View Details</a>]]></description><Point><coordinates>6.780238,51.119095</coordinates></Point></Placemark><Placemark><name>Norwich Judo Dojo</name><description><![CDATA[<a href="http://dev.dojolist/dojo/Norwich Judo Dojo">View Details</a>]]></description><Point><coordinates>-72.102209,41.547805</coordinates></Point></Placemark><Placemark><name>Coventry Judo Club</name><description><![CDATA[<a href="http://dev.dojolist/dojo/Coventry Judo Club">View Details</a>]]></description><Point><coordinates>-1.593205,52.411981</coordinates></Point></Placemark><Placemark><name>The Budokwai</name><description><![CDATA[<a href="http://dev.dojolist/dojo/The Budokwai">View Details</a>]]></description><Point><coordinates>-0.180564,51.486461</coordinates></Point></Placemark><Placemark><name>Phnom Penh Judo club</name><description><![CDATA[<a href="http://dev.dojolist/dojo/Phnom Penh Judo club">View Details</a>]]></description><Point><coordinates>104.909434,11.557693</coordinates></Point></Placemark><Placemark><name>Judo Tao</name><description><![CDATA[<a href="http://dev.dojolist/dojo/Judo Tao">View Details</a>]]></description><Point><coordinates>2.098249,41.369426</coordinates></Point></Placemark><Placemark><name>Judo klub Dubrovnik</name><description><![CDATA[<a href="http://dev.dojolist/dojo/Judo klub Dubrovnik">View Details</a>]]></description><Point><coordinates>18.088603,42.647060</coordinates></Point></Placemark><Placemark><name>Sale Judo club</name><description><![CDATA[<a href="http://dev.dojolist/dojo/Sale Judo club">View Details</a>]]></description><Point><coordinates>-2.317075,53.424680</coordinates></Point></Placemark><Placemark><name>Thai Japanese Stadium judo club</name><description><![CDATA[<a href="http://dev.dojolist/dojo/Thai Japanese Stadium judo club">View Details</a>]]></description><Point><coordinates>100.552197,13.767272</coordinates></Point></Placemark><Placemark><name>swindon judo club</name><description><![CDATA[<a href="http://dev.dojolist/dojo/swindon judo club">View Details</a>]]></description><Point><coordinates>-1.796265,51.549751</coordinates></Point></Placemark><Placemark><name>Judo Club Hajime Kerpen-Brüggen</name><description><![CDATA[<a href="http://dev.dojolist/dojo/Judo Club Hajime Kerpen-Brüggen">View Details</a>]]></description><Point><coordinates>6.764574,50.850655</coordinates></Point></Placemark><Placemark><name>Hontai Judo Club</name><description><![CDATA[<a href="http://dev.dojolist/dojo/Hontai Judo Club">View Details</a>]]></description><Point><coordinates>25.019367,60.280132</coordinates></Point></Placemark><Placemark><name>Turun judoseura</name><description><![CDATA[<a href="http://dev.dojolist/dojo/Turun judoseura">View Details</a>]]></description><Point><coordinates>22.281175,60.465660</coordinates></Point></Placemark><Placemark><name>Chu To Bu West</name><description><![CDATA[<a href="http://dev.dojolist/dojo/Chu To Bu West">View Details</a>]]></description><Point><coordinates>-81.988392,41.470773</coordinates></Point></Placemark><Placemark><name>Garioch Judo Club</name><description><![CDATA[<a href="http://dev.dojolist/dojo/Garioch Judo Club">View Details</a>]]></description><Point><coordinates>-2.182803,57.205897</coordinates></Point></Placemark><Placemark><name>Aberdeen Judo Club</name><description><![CDATA[<a href="http://dev.dojolist/dojo/Aberdeen Judo Club">View Details</a>]]></description><Point><coordinates>-2.079849,57.156029</coordinates></Point></Placemark><Placemark><name>Bellahouston Judo Club</name><description><![CDATA[<a href="http://dev.dojolist/dojo/Bellahouston Judo Club">View Details</a>]]></description><Point><coordinates>-4.249842,55.865993</coordinates></Point></Placemark><Placemark><name>Cluarankwai</name><description><![CDATA[<a href="http://dev.dojolist/dojo/Cluarankwai">View Details</a>]]></description><Point><coordinates>-4.483066,55.603554</coordinates></Point></Placemark><Placemark><name>Falu Judoklubb</name><description><![CDATA[<a href="http://dev.dojolist/dojo/Falu Judoklubb">View Details</a>]]></description><Point><coordinates>15.656900,60.617600</coordinates></Point></Placemark><Placemark><name>Forshaga Judoklubb</name><description><![CDATA[<a href="http://dev.dojolist/dojo/Forshaga Judoklubb">View Details</a>]]></description><Point><coordinates>13.486300,59.520900</coordinates></Point></Placemark><Placemark><name>Frölunda Judoklubb</name><description><![CDATA[<a href="http://dev.dojolist/dojo/Frölunda Judoklubb">View Details</a>]]></description><Point><coordinates>11.923100,57.644600</coordinates></Point></Placemark><Placemark><name>Frövi Judo</name><description><![CDATA[<a href="http://dev.dojolist/dojo/Frövi Judo">View Details</a>]]></description><Point><coordinates>15.355700,59.470100</coordinates></Point></Placemark><Placemark><name>Färgelanda Judoklubb</name><description><![CDATA[<a href="http://dev.dojolist/dojo/Färgelanda Judoklubb">View Details</a>]]></description><Point><coordinates>12.060800,58.569700</coordinates></Point></Placemark><Placemark><name>GAK Enighet</name><description><![CDATA[<a href="http://dev.dojolist/dojo/GAK Enighet">View Details</a>]]></description><Point><coordinates>13.020700,55.587700</coordinates></Point></Placemark><Placemark><name>GF Idrott Judosektion</name><description><![CDATA[<a href="http://dev.dojolist/dojo/GF Idrott Judosektion">View Details</a>]]></description><Point><coordinates>12.840000,55.884500</coordinates></Point></Placemark><Placemark><name>Gribby Judo</name><description><![CDATA[<a href="http://dev.dojolist/dojo/Gribby Judo">View Details</a>]]></description><Point><coordinates>18.089200,59.462400</coordinates></Point></Placemark><Placemark><name>Grums Judoklubb</name><description><![CDATA[<a href="http://dev.dojolist/dojo/Grums Judoklubb">View Details</a>]]></description><Point><coordinates>13.105900,59.354200</coordinates></Point></Placemark><Placemark><name>Gullmarens Judoklubb</name><description><![CDATA[<a href="http://dev.dojolist/dojo/Gullmarens Judoklubb">View Details</a>]]></description><Point><coordinates>11.426000,58.383300</coordinates></Point></Placemark><Placemark><name>Hammarö Judoklubb</name><description><![CDATA[<a href="http://dev.dojolist/dojo/Hammarö Judoklubb">View Details</a>]]></description><Point><coordinates>13.539700,59.304700</coordinates></Point></Placemark><Placemark><name>Habo Judoklubb</name><description><![CDATA[<a href="http://dev.dojolist/dojo/Habo Judoklubb">View Details</a>]]></description><Point><coordinates>14.099000,57.913900</coordinates></Point></Placemark><Placemark><name>Götene Judo</name><description><![CDATA[<a href="http://dev.dojolist/dojo/Götene Judo">View Details</a>]]></description><Point><coordinates>13.477900,58.526800</coordinates></Point></Placemark><Placemark><name>Göteborgs Judoklubb</name><description><![CDATA[<a href="http://dev.dojolist/dojo/Göteborgs Judoklubb">View Details</a>]]></description><Point><coordinates>11.940500,57.698600</coordinates></Point></Placemark><Placemark><name>Göteborg - JK Kano</name><description><![CDATA[<a href="http://dev.dojolist/dojo/Göteborg - JK Kano">View Details</a>]]></description><Point><coordinates>11.975500,57.698900</coordinates></Point></Placemark><Placemark><name>Gävle Tjäder</name><description><![CDATA[<a href="http://dev.dojolist/dojo/Gävle Tjäder">View Details</a>]]></description><Point><coordinates>17.116200,60.691400</coordinates></Point></Placemark><Placemark><name>Gävle Judo Club</name><description><![CDATA[<a href="http://dev.dojolist/dojo/Gävle Judo Club">View Details</a>]]></description><Point><coordinates>17.175200,60.659400</coordinates></Point></Placemark><Placemark><name>Gustafs JK</name><description><![CDATA[<a href="http://dev.dojolist/dojo/Gustafs JK">View Details</a>]]></description><Point><coordinates>15.597400,60.402300</coordinates></Point></Placemark><Placemark><name>Falkenbergs Judoklubb</name><description><![CDATA[<a href="http://dev.dojolist/dojo/Falkenbergs Judoklubb">View Details</a>]]></description><Point><coordinates>12.471400,56.897500</coordinates></Point></Placemark><Placemark><name>Fagersta Judoklubb</name><description><![CDATA[<a href="http://dev.dojolist/dojo/Fagersta Judoklubb">View Details</a>]]></description><Point><coordinates>15.808400,60.000600</coordinates></Point></Placemark><Placemark><name>Eskilstuna Judoklubb</name><description><![CDATA[<a href="http://dev.dojolist/dojo/Eskilstuna Judoklubb">View Details</a>]]></description><Point><coordinates>16.509800,59.373800</coordinates></Point></Placemark><Placemark><name>Carlshamn Judo</name><description><![CDATA[<a href="http://dev.dojolist/dojo/Carlshamn Judo">View Details</a>]]></description><Point><coordinates>14.865400,56.170200</coordinates></Point></Placemark><Placemark><name>Ekerö Judoklubb</name><description><![CDATA[<a href="http://dev.dojolist/dojo/Ekerö Judoklubb">View Details</a>]]></description><Point><coordinates>17.716500,59.288300</coordinates></Point></Placemark><Placemark><name>Bålsta Judoklubb</name><description><![CDATA[<a href="http://dev.dojolist/dojo/Bålsta Judoklubb">View Details</a>]]></description><Point><coordinates>17.538700,59.560200</coordinates></Point></Placemark><Placemark><name>Budoklubben Yoi</name><description><![CDATA[<a href="http://dev.dojolist/dojo/Budoklubben Yoi">View Details</a>]]></description><Point><coordinates>13.878100,57.915400</coordinates></Point></Placemark><Placemark><name>Borås Judoklubb</name><description><![CDATA[<a href="http://dev.dojolist/dojo/Borås Judoklubb">View Details</a>]]></description><Point><coordinates>12.931500,57.720100</coordinates></Point></Placemark><Placemark><name>Borlänge Judo Club</name><description><![CDATA[<a href="http://dev.dojolist/dojo/Borlänge Judo Club">View Details</a>]]></description><Point><coordinates>15.404300,60.472600</coordinates></Point></Placemark><Placemark><name>Helsingborgs Judoklubb</name><description><![CDATA[<a href="http://dev.dojolist/dojo/Helsingborgs Judoklubb">View Details</a>]]></description><Point><coordinates>12.704700,56.052700</coordinates></Point></Placemark><Placemark><name>Hudiksvalls Judoklubb</name><description><![CDATA[<a href="http://dev.dojolist/dojo/Hudiksvalls Judoklubb">View Details</a>]]></description><Point><coordinates>17.109900,61.717300</coordinates></Point></Placemark><Placemark><name>Hunnebo Judo</name><description><![CDATA[<a href="http://dev.dojolist/dojo/Hunnebo Judo">View Details</a>]]></description><Point><coordinates>11.298900,58.435000</coordinates></Point></Placemark><Placemark><name>Högdalens Judoklubb</name><description><![CDATA[<a href="http://dev.dojolist/dojo/Högdalens Judoklubb">View Details</a>]]></description><Point><coordinates>18.041700,59.264400</coordinates></Point></Placemark><Placemark><name>IF Aktiv Ungdom i Lidingö</name><description><![CDATA[<a href="http://dev.dojolist/dojo/IF Aktiv Ungdom i Lidingö">View Details</a>]]></description><Point><coordinates>18.156800,59.374200</coordinates></Point></Placemark><Placemark><name>IF Järfälla Judo</name><description><![CDATA[<a href="http://dev.dojolist/dojo/IF Järfälla Judo">View Details</a>]]></description><Point><coordinates>17.838100,59.417100</coordinates></Point></Placemark><Placemark><name>IK Södra Judo, Farstahallen</name><description><![CDATA[<a href="http://dev.dojolist/dojo/IK Södra Judo, Farstahallen">View Details</a>]]></description><Point><coordinates>18.084900,59.239300</coordinates></Point></Placemark><Placemark><name>IK Södra Judo, Skarpnäck</name><description><![CDATA[<a href="http://dev.dojolist/dojo/IK Södra Judo, Skarpnäck">View Details</a>]]></description><Point><coordinates>18.143400,59.267400</coordinates></Point></Placemark><Placemark><name>IK Södra Judo, Torvallahallen</name><description><![CDATA[<a href="http://dev.dojolist/dojo/IK Södra Judo, Torvallahallen">View Details</a>]]></description><Point><coordinates>18.155900,59.166100</coordinates></Point></Placemark><Placemark><name>IK Västra Mölndal</name><description><![CDATA[<a href="http://dev.dojolist/dojo/IK Västra Mölndal">View Details</a>]]></description><Point><coordinates>11.991600,57.661600</coordinates></Point></Placemark><Placemark><name>JK Jinkei</name><description><![CDATA[<a href="http://dev.dojolist/dojo/JK Jinkei">View Details</a>]]></description><Point><coordinates>12.002300,57.729900</coordinates></Point></Placemark><Placemark><name>Jordbro Judo club</name><description><![CDATA[<a href="http://dev.dojolist/dojo/Jordbro Judo club">View Details</a>]]></description><Point><coordinates>18.139800,59.138200</coordinates></Point></Placemark><Placemark><name>Judo Club Sundsvall</name><description><![CDATA[<a href="http://dev.dojolist/dojo/Judo Club Sundsvall">View Details</a>]]></description><Point><coordinates>17.340200,62.396200</coordinates></Point></Placemark><Placemark><name>Judoklubben Budo</name><description><![CDATA[<a href="http://dev.dojolist/dojo/Judoklubben Budo">View Details</a>]]></description><Point><coordinates>11.954400,57.742300</coordinates></Point></Placemark><Placemark><name>Judoklubben Jigo-Tai</name><description><![CDATA[<a href="http://dev.dojolist/dojo/Judoklubben Jigo-Tai">View Details</a>]]></description><Point><coordinates>13.942700,56.825800</coordinates></Point></Placemark><Placemark><name>Judoklubben Ki</name><description><![CDATA[<a href="http://dev.dojolist/dojo/Judoklubben Ki">View Details</a>]]></description><Point><coordinates>11.898100,57.659200</coordinates></Point></Placemark><Placemark><name>Judoklubben National</name><description><![CDATA[<a href="http://dev.dojolist/dojo/Judoklubben National">View Details</a>]]></description><Point><coordinates>12.869500,56.690000</coordinates></Point></Placemark><Placemark><name>Järfälla Budoklubb</name><description><![CDATA[<a href="http://dev.dojolist/dojo/Järfälla Budoklubb">View Details</a>]]></description><Point><coordinates>17.834900,59.427000</coordinates></Point></Placemark><Placemark><name>Jönköpings Judoklubb</name><description><![CDATA[<a href="http://dev.dojolist/dojo/Jönköpings Judoklubb">View Details</a>]]></description><Point><coordinates>14.206600,57.782400</coordinates></Point></Placemark><Placemark><name>Kallinge Judoclub</name><description><![CDATA[<a href="http://dev.dojolist/dojo/Kallinge Judoclub">View Details</a>]]></description><Point><coordinates>15.273400,56.203300</coordinates></Point></Placemark><Placemark><name>Kalmar Budoklubb</name><description><![CDATA[<a href="http://dev.dojolist/dojo/Kalmar Budoklubb">View Details</a>]]></description><Point><coordinates>16.349300,56.668000</coordinates></Point></Placemark><Placemark><name>Kampsportscentrums Judosektion</name><description><![CDATA[<a href="http://dev.dojolist/dojo/Kampsportscentrums Judosektion">View Details</a>]]></description><Point><coordinates>12.312700,58.380300</coordinates></Point></Placemark><Placemark><name>Kampsportsklubben Mifune</name><description><![CDATA[<a href="http://dev.dojolist/dojo/Kampsportsklubben Mifune">View Details</a>]]></description><Point><coordinates>15.164500,59.275300</coordinates></Point></Placemark><Placemark><name>Karlskoga Budoklubb</name><description><![CDATA[<a href="http://dev.dojolist/dojo/Karlskoga Budoklubb">View Details</a>]]></description><Point><coordinates>14.535600,59.328100</coordinates></Point></Placemark><Placemark><name>Karlskrona Judoklubb</name><description><![CDATA[<a href="http://dev.dojolist/dojo/Karlskrona Judoklubb">View Details</a>]]></description><Point><coordinates>15.565200,56.161200</coordinates></Point></Placemark><Placemark><name>Karlstad Judoklubb</name><description><![CDATA[<a href="http://dev.dojolist/dojo/Karlstad Judoklubb">View Details</a>]]></description><Point><coordinates>13.513300,59.390200</coordinates></Point></Placemark><Placemark><name>Kitana Judoklubb</name><description><![CDATA[<a href="http://dev.dojolist/dojo/Kitana Judoklubb">View Details</a>]]></description><Point><coordinates>18.309300,59.478500</coordinates></Point></Placemark><Placemark><name>Knivsta Judoklubb</name><description><![CDATA[<a href="http://dev.dojolist/dojo/Knivsta Judoklubb">View Details</a>]]></description><Point><coordinates>17.787800,59.726700</coordinates></Point></Placemark><Placemark><name>Kristianstad Judoklubb</name><description><![CDATA[<a href="http://dev.dojolist/dojo/Kristianstad Judoklubb">View Details</a>]]></description><Point><coordinates>14.150700,56.023300</coordinates></Point></Placemark><Placemark><name>Kristinehamns Judoklubb</name><description><![CDATA[<a href="http://dev.dojolist/dojo/Kristinehamns Judoklubb">View Details</a>]]></description><Point><coordinates>14.100100,59.317200</coordinates></Point></Placemark><Placemark><name>Kungsbacka Judoklubb</name><description><![CDATA[<a href="http://dev.dojolist/dojo/Kungsbacka Judoklubb">View Details</a>]]></description><Point><coordinates>12.076100,57.482300</coordinates></Point></Placemark><Placemark><name>Källan i Finspång</name><description><![CDATA[<a href="http://dev.dojolist/dojo/Källan i Finspång">View Details</a>]]></description><Point><coordinates>15.808400,58.714200</coordinates></Point></Placemark><Placemark><name>Köpings Judoklubb</name><description><![CDATA[<a href="http://dev.dojolist/dojo/Köpings Judoklubb">View Details</a>]]></description><Point><coordinates>15.993500,59.518000</coordinates></Point></Placemark><Placemark><name>Landvetter Judoklubb</name><description><![CDATA[<a href="http://dev.dojolist/dojo/Landvetter Judoklubb">View Details</a>]]></description><Point><coordinates>12.207500,57.695000</coordinates></Point></Placemark><Placemark><name>Lerums Judoklubb</name><description><![CDATA[<a href="http://dev.dojolist/dojo/Lerums Judoklubb">View Details</a>]]></description><Point><coordinates>12.309200,57.792500</coordinates></Point></Placemark><Placemark><name>Lidköpings Budoklubb</name><description><![CDATA[<a href="http://dev.dojolist/dojo/Lidköpings Budoklubb">View Details</a>]]></description><Point><coordinates>13.147200,58.496200</coordinates></Point></Placemark><Placemark><name>Lilla Edets Judoklubb</name><description><![CDATA[<a href="http://dev.dojolist/dojo/Lilla Edets Judoklubb">View Details</a>]]></description><Point><coordinates>12.106700,58.142200</coordinates></Point></Placemark><Placemark><name>Lindome Judoklubb</name><description><![CDATA[<a href="http://dev.dojolist/dojo/Lindome Judoklubb">View Details</a>]]></description><Point><coordinates>12.042000,57.606700</coordinates></Point></Placemark><Placemark><name>Linköping Judo</name><description><![CDATA[<a href="http://dev.dojolist/dojo/Linköping Judo">View Details</a>]]></description><Point><coordinates>15.634700,58.411700</coordinates></Point></Placemark><Placemark><name>Ljusdals Judo Club</name><description><![CDATA[<a href="http://dev.dojolist/dojo/Ljusdals Judo Club">View Details</a>]]></description><Point><coordinates>16.088200,61.828000</coordinates></Point></Placemark><Placemark><name>Ludvika Judoklubb</name><description><![CDATA[<a href="http://dev.dojolist/dojo/Ludvika Judoklubb">View Details</a>]]></description><Point><coordinates>15.178600,60.124400</coordinates></Point></Placemark><Placemark><name>Lugi Judoklubb</name><description><![CDATA[<a href="http://dev.dojolist/dojo/Lugi Judoklubb">View Details</a>]]></description><Point><coordinates>13.177600,55.703900</coordinates></Point></Placemark><Placemark><name>Luleå Judoklubb</name><description><![CDATA[<a href="http://dev.dojolist/dojo/Luleå Judoklubb">View Details</a>]]></description><Point><coordinates>22.150400,65.587800</coordinates></Point></Placemark><Placemark><name>Långshyttans Judoklubb</name><description><![CDATA[<a href="http://dev.dojolist/dojo/Långshyttans Judoklubb">View Details</a>]]></description><Point><coordinates>16.026700,60.446900</coordinates></Point></Placemark><Placemark><name>Malmö Budokan Judoklubb</name><description><![CDATA[<a href="http://dev.dojolist/dojo/Malmö Budokan Judoklubb">View Details</a>]]></description><Point><coordinates>13.000100,55.597400</coordinates></Point></Placemark><Placemark><name>Mariestads Judoklubb</name><description><![CDATA[<a href="http://dev.dojolist/dojo/Mariestads Judoklubb">View Details</a>]]></description><Point><coordinates>13.821900,58.695500</coordinates></Point></Placemark><Placemark><name>Molkom Judoklubb</name><description><![CDATA[<a href="http://dev.dojolist/dojo/Molkom Judoklubb">View Details</a>]]></description><Point><coordinates>13.724900,59.604600</coordinates></Point></Placemark><Placemark><name>Märsta Judoklubb</name><description><![CDATA[<a href="http://dev.dojolist/dojo/Märsta Judoklubb">View Details</a>]]></description><Point><coordinates>17.826600,59.617700</coordinates></Point></Placemark><Placemark><name>Mölndals Judoklubb</name><description><![CDATA[<a href="http://dev.dojolist/dojo/Mölndals Judoklubb">View Details</a>]]></description><Point><coordinates>11.991600,57.661600</coordinates></Point></Placemark><Placemark><name>Mölntorps IK Judo</name><description><![CDATA[<a href="http://dev.dojolist/dojo/Mölntorps IK Judo">View Details</a>]]></description><Point><coordinates>16.226500,59.615700</coordinates></Point></Placemark><Placemark><name>Nacka Judoklubb</name><description><![CDATA[<a href="http://dev.dojolist/dojo/Nacka Judoklubb">View Details</a>]]></description><Point><coordinates>18.153000,59.310600</coordinates></Point></Placemark><Placemark><name>Norrköpings judoklubb</name><description><![CDATA[<a href="http://dev.dojolist/dojo/Norrköpings judoklubb">View Details</a>]]></description><Point><coordinates>16.135400,58.597600</coordinates></Point></Placemark><Placemark><name>Norrtälje Judoklubb</name><description><![CDATA[<a href="http://dev.dojolist/dojo/Norrtälje Judoklubb">View Details</a>]]></description><Point><coordinates>18.720800,59.765300</coordinates></Point></Placemark><Placemark><name>Nybro Ju-jutsu och Judo</name><description><![CDATA[<a href="http://dev.dojolist/dojo/Nybro Ju-jutsu och Judo">View Details</a>]]></description><Point><coordinates>15.905500,56.744000</coordinates></Point></Placemark><Placemark><name>Nyköpings judoklubb</name><description><![CDATA[<a href="http://dev.dojolist/dojo/Nyköpings judoklubb">View Details</a>]]></description><Point><coordinates>17.043400,58.750200</coordinates></Point></Placemark><Placemark><name>Olofströms Judoklubb</name><description><![CDATA[<a href="http://dev.dojolist/dojo/Olofströms Judoklubb">View Details</a>]]></description><Point><coordinates>14.530400,56.270600</coordinates></Point></Placemark><Placemark><name>Oxelösunds Judoklubb</name><description><![CDATA[<a href="http://dev.dojolist/dojo/Oxelösunds Judoklubb">View Details</a>]]></description><Point><coordinates>17.080700,58.674000</coordinates></Point></Placemark><Placemark><name>Perstorps Budoklubb</name><description><![CDATA[<a href="http://dev.dojolist/dojo/Perstorps Budoklubb">View Details</a>]]></description><Point><coordinates>13.394800,56.138300</coordinates></Point></Placemark><Placemark><name>Piteå Judoklubb</name><description><![CDATA[<a href="http://dev.dojolist/dojo/Piteå Judoklubb">View Details</a>]]></description><Point><coordinates>21.483200,65.326600</coordinates></Point></Placemark><Placemark><name>Rimbo Judoklubb</name><description><![CDATA[<a href="http://dev.dojolist/dojo/Rimbo Judoklubb">View Details</a>]]></description><Point><coordinates>18.357900,59.742400</coordinates></Point></Placemark><Placemark><name>Rättviks Judoklubb</name><description><![CDATA[<a href="http://dev.dojolist/dojo/Rättviks Judoklubb">View Details</a>]]></description><Point><coordinates>15.146800,60.895800</coordinates></Point></Placemark><Placemark><name>Sakura Judoklubb</name><description><![CDATA[<a href="http://dev.dojolist/dojo/Sakura Judoklubb">View Details</a>]]></description><Point><coordinates>12.028100,57.737200</coordinates></Point></Placemark><Placemark><name>Saltsjö Judoklubb</name><description><![CDATA[<a href="http://dev.dojolist/dojo/Saltsjö Judoklubb">View Details</a>]]></description><Point><coordinates>18.395500,59.335800</coordinates></Point></Placemark><Placemark><name>Seiryoku Zenyo Judo</name><description><![CDATA[<a href="http://dev.dojolist/dojo/Seiryoku Zenyo Judo">View Details</a>]]></description><Point><coordinates>16.602800,59.918200</coordinates></Point></Placemark><Placemark><name>Sigtuna Budoklubb</name><description><![CDATA[<a href="http://dev.dojolist/dojo/Sigtuna Budoklubb">View Details</a>]]></description><Point><coordinates>17.725400,59.621200</coordinates></Point></Placemark><Placemark><name>Skellefteå Judoklubb</name><description><![CDATA[<a href="http://dev.dojolist/dojo/Skellefteå Judoklubb">View Details</a>]]></description><Point><coordinates>20.970100,64.755100</coordinates></Point></Placemark><Placemark><name>Skövde Judoklubb</name><description><![CDATA[<a href="http://dev.dojolist/dojo/Skövde Judoklubb">View Details</a>]]></description><Point><coordinates>13.836700,58.383900</coordinates></Point></Placemark><Placemark><name>Solna Judoklubb</name><description><![CDATA[<a href="http://dev.dojolist/dojo/Solna Judoklubb">View Details</a>]]></description><Point><coordinates>17.988900,59.356000</coordinates></Point></Placemark><Placemark><name>Staffanstorps Judoklubb</name><description><![CDATA[<a href="http://dev.dojolist/dojo/Staffanstorps Judoklubb">View Details</a>]]></description><Point><coordinates>13.215700,55.635700</coordinates></Point></Placemark><Placemark><name>Stenungsunds Judoklubb</name><description><![CDATA[<a href="http://dev.dojolist/dojo/Stenungsunds Judoklubb">View Details</a>]]></description><Point><coordinates>11.827200,58.056700</coordinates></Point></Placemark><Placemark><name>Stockholms Judo Dojo</name><description><![CDATA[<a href="http://dev.dojolist/dojo/Stockholms Judo Dojo">View Details</a>]]></description><Point><coordinates>18.035400,59.340800</coordinates></Point></Placemark><Placemark><name>Stockholms Judoklubb</name><description><![CDATA[<a href="http://dev.dojolist/dojo/Stockholms Judoklubb">View Details</a>]]></description><Point><coordinates>18.014900,59.303600</coordinates></Point></Placemark><Placemark><name>Stockholms Polisens IF Judosektionen</name><description><![CDATA[<a href="http://dev.dojolist/dojo/Stockholms Polisens IF Judosektionen">View Details</a>]]></description><Point><coordinates>18.013200,59.301400</coordinates></Point></Placemark><Placemark><name>Storfors Judoklubb</name><description><![CDATA[<a href="http://dev.dojolist/dojo/Storfors Judoklubb">View Details</a>]]></description><Point><coordinates>14.279300,59.543200</coordinates></Point></Placemark><Placemark><name>Söderhamns Judoklubb</name><description><![CDATA[<a href="http://dev.dojolist/dojo/Söderhamns Judoklubb">View Details</a>]]></description><Point><coordinates>17.069000,61.307700</coordinates></Point></Placemark><Placemark><name>Söderköpings Judoklubb</name><description><![CDATA[<a href="http://dev.dojolist/dojo/Söderköpings Judoklubb">View Details</a>]]></description><Point><coordinates>16.309100,58.477800</coordinates></Point></Placemark><Placemark><name>Södertälje Judoklubb</name><description><![CDATA[<a href="http://dev.dojolist/dojo/Södertälje Judoklubb">View Details</a>]]></description><Point><coordinates>17.663600,59.204100</coordinates></Point></Placemark><Placemark><name>Takedown Judo</name><description><![CDATA[<a href="http://dev.dojolist/dojo/Takedown Judo">View Details</a>]]></description><Point><coordinates>13.017200,55.588000</coordinates></Point></Placemark><Placemark><name>Tierps Judoklubb</name><description><![CDATA[<a href="http://dev.dojolist/dojo/Tierps Judoklubb">View Details</a>]]></description><Point><coordinates>17.508600,60.348600</coordinates></Point></Placemark><Placemark><name>Trelleborgs Budo Kai</name><description><![CDATA[<a href="http://dev.dojolist/dojo/Trelleborgs Budo Kai">View Details</a>]]></description><Point><coordinates>13.152900,55.384200</coordinates></Point></Placemark><Placemark><name>Tumba Judoklubb</name><description><![CDATA[<a href="http://dev.dojolist/dojo/Tumba Judoklubb">View Details</a>]]></description><Point><coordinates>17.833600,59.201800</coordinates></Point></Placemark><Placemark><name>Tyresö Judo  and  Jujutsuklubb</name><description><![CDATA[<a href="http://dev.dojolist/dojo/Tyresö Judo  and  Jujutsuklubb">View Details</a>]]></description><Point><coordinates>18.207300,59.220800</coordinates></Point></Placemark><Placemark><name>Uddevalla Judoklubb</name><description><![CDATA[<a href="http://dev.dojolist/dojo/Uddevalla Judoklubb">View Details</a>]]></description><Point><coordinates>11.957400,58.345500</coordinates></Point></Placemark><Placemark><name>Umeå Judoklubb</name><description><![CDATA[<a href="http://dev.dojolist/dojo/Umeå Judoklubb">View Details</a>]]></description><Point><coordinates>20.286200,63.828700</coordinates></Point></Placemark><Placemark><name>Upplands Väsby Judoklubb</name><description><![CDATA[<a href="http://dev.dojolist/dojo/Upplands Väsby Judoklubb">View Details</a>]]></description><Point><coordinates>17.899500,59.517300</coordinates></Point></Placemark><Placemark><name>Uppsala Judoklubb</name><description><![CDATA[<a href="http://dev.dojolist/dojo/Uppsala Judoklubb">View Details</a>]]></description><Point><coordinates>17.623300,59.870500</coordinates></Point></Placemark><Placemark><name>Varbergs Judoklubb</name><description><![CDATA[<a href="http://dev.dojolist/dojo/Varbergs Judoklubb">View Details</a>]]></description><Point><coordinates>12.254800,57.099700</coordinates></Point></Placemark><Placemark><name>Vilhelmina Judoklubb</name><description><![CDATA[<a href="http://dev.dojolist/dojo/Vilhelmina Judoklubb">View Details</a>]]></description><Point><coordinates>16.673900,64.617500</coordinates></Point></Placemark><Placemark><name>Vällingby Budoklubb</name><description><![CDATA[<a href="http://dev.dojolist/dojo/Vällingby Budoklubb">View Details</a>]]></description><Point><coordinates>17.880500,59.364300</coordinates></Point></Placemark><Placemark><name>Västbo Judoklubb</name><description><![CDATA[<a href="http://dev.dojolist/dojo/Västbo Judoklubb">View Details</a>]]></description><Point><coordinates>13.536200,57.305100</coordinates></Point></Placemark><Placemark><name>Västerviks Judoklubb</name><description><![CDATA[<a href="http://dev.dojolist/dojo/Västerviks Judoklubb">View Details</a>]]></description><Point><coordinates>16.621600,57.754300</coordinates></Point></Placemark><Placemark><name>Västerås Judoklubb</name><description><![CDATA[<a href="http://dev.dojolist/dojo/Västerås Judoklubb">View Details</a>]]></description><Point><coordinates>16.608600,59.614100</coordinates></Point></Placemark><Placemark><name>Västerås Judoskola</name><description><![CDATA[<a href="http://dev.dojolist/dojo/Västerås Judoskola">View Details</a>]]></description><Point><coordinates>16.539000,59.606700</coordinates></Point></Placemark><Placemark><name>Växjö Judoklubb</name><description><![CDATA[<a href="http://dev.dojolist/dojo/Växjö Judoklubb">View Details</a>]]></description><Point><coordinates>14.763400,56.887400</coordinates></Point></Placemark><Placemark><name>Ystad Budoclub</name><description><![CDATA[<a href="http://dev.dojolist/dojo/Ystad Budoclub">View Details</a>]]></description><Point><coordinates>13.834000,55.437400</coordinates></Point></Placemark><Placemark><name>Ånge Judoklubb</name><description><![CDATA[<a href="http://dev.dojolist/dojo/Ånge Judoklubb">View Details</a>]]></description><Point><coordinates>15.657200,62.518900</coordinates></Point></Placemark><Placemark><name>Åtvidabergs Judoklubb</name><description><![CDATA[<a href="http://dev.dojolist/dojo/Åtvidabergs Judoklubb">View Details</a>]]></description><Point><coordinates>16.003100,58.196500</coordinates></Point></Placemark><Placemark><name>Älmhults Judoklubb</name><description><![CDATA[<a href="http://dev.dojolist/dojo/Älmhults Judoklubb">View Details</a>]]></description><Point><coordinates>14.156600,56.552800</coordinates></Point></Placemark><Placemark><name>Ängelholm Judo</name><description><![CDATA[<a href="http://dev.dojolist/dojo/Ängelholm Judo">View Details</a>]]></description><Point><coordinates>12.856900,56.248300</coordinates></Point></Placemark><Placemark><name>Örebro Judo</name><description><![CDATA[<a href="http://dev.dojolist/dojo/Örebro Judo">View Details</a>]]></description><Point><coordinates>15.215400,59.279000</coordinates></Point></Placemark><Placemark><name>Östersunds Judoklubb</name><description><![CDATA[<a href="http://dev.dojolist/dojo/Östersunds Judoklubb">View Details</a>]]></description><Point><coordinates>14.654600,63.189200</coordinates></Point></Placemark><Placemark><name>BOO KFUM</name><description><![CDATA[<a href="http://dev.dojolist/dojo/BOO KFUM">View Details</a>]]></description><Point><coordinates>18.272700,59.332100</coordinates></Point></Placemark><Placemark><name>Bollnäs JK</name><description><![CDATA[<a href="http://dev.dojolist/dojo/Bollnäs JK">View Details</a>]]></description><Point><coordinates>16.386400,61.349400</coordinates></Point></Placemark><Placemark><name>Boden Bushido Center</name><description><![CDATA[<a href="http://dev.dojolist/dojo/Boden Bushido Center">View Details</a>]]></description><Point><coordinates>21.698100,65.831900</coordinates></Point></Placemark><Placemark><name>Arboga Judoklubb</name><description><![CDATA[<a href="http://dev.dojolist/dojo/Arboga Judoklubb">View Details</a>]]></description><Point><coordinates>15.838800,59.395200</coordinates></Point></Placemark><Placemark><name>Alingsås Judoklubb</name><description><![CDATA[<a href="http://dev.dojolist/dojo/Alingsås Judoklubb">View Details</a>]]></description><Point><coordinates>12.532600,57.940000</coordinates></Point></Placemark><Placemark><name>Shoorikan Judô Club</name><description><![CDATA[<a href="http://dev.dojolist/dojo/Shoorikan Judô Club">View Details</a>]]></description><Point><coordinates>-46.636405,-23.589200</coordinates></Point></Placemark><Placemark><name>Midwest Judo/Jui Jitsu</name><description><![CDATA[<a href="http://dev.dojolist/dojo/Midwest Judo/Jui Jitsu">View Details</a>]]></description><Point><coordinates>-87.986069,41.743140</coordinates></Point></Placemark><Placemark><name>Dallas Kenpo</name><description><![CDATA[<a href="http://dev.dojolist/dojo/Dallas Kenpo">View Details</a>]]></description><Point><coordinates>-96.871201,32.854318</coordinates></Point></Placemark><Placemark><name>Diamond Valley Judo Centre</name><description><![CDATA[<a href="http://dev.dojolist/dojo/Diamond Valley Judo Centre">View Details</a>]]></description><Point><coordinates>145.092144,-37.702837</coordinates></Point></Placemark><Placemark><name>Ray Stevens Judo - Blossom Hse Dojo</name><description><![CDATA[<a href="http://dev.dojolist/dojo/Ray Stevens Judo - Blossom Hse Dojo">View Details</a>]]></description><Point><coordinates>-0.228353,51.416686</coordinates></Point></Placemark><Placemark><name>Ray Stevens Judo - Oberon Dojo</name><description><![CDATA[<a href="http://dev.dojolist/dojo/Ray Stevens Judo - Oberon Dojo">View Details</a>]]></description><Point><coordinates>-0.241914,51.417007</coordinates></Point></Placemark><Placemark><name>JudoGoes</name><description><![CDATA[<a href="http://dev.dojolist/dojo/JudoGoes">View Details</a>]]></description><Point><coordinates>3.894653,51.495065</coordinates></Point></Placemark><Placemark><name>Judo Condal</name><description><![CDATA[<a href="http://dev.dojolist/dojo/Judo Condal">View Details</a>]]></description><Point><coordinates>2.1462362,41.3767236</coordinates></Point></Placemark><Placemark><name>Budokan Judo Club Australia</name><description><![CDATA[<a href="http://dev.dojolist/dojo/Budokan Judo Club Australia">View Details</a>]]></description><Point><coordinates>150.985317,-33.726468</coordinates></Point></Placemark><Placemark><name>Kokoro Dojo</name><description><![CDATA[<a href="http://dev.dojolist/dojo/Kokoro Dojo">View Details</a>]]></description><Point><coordinates>-97.766889,30.239850</coordinates></Point></Placemark><Placemark><name>Round Rock Martial Arts</name><description><![CDATA[<a href="http://dev.dojolist/dojo/Round Rock Martial Arts">View Details</a>]]></description><Point><coordinates>-97.686476,30.500913</coordinates></Point></Placemark><Placemark><name>Australian National University Judo Club</name><description><![CDATA[<a href="http://dev.dojolist/dojo/Australian National University Judo Club">View Details</a>]]></description><Point><coordinates>149.121037,-35.276316</coordinates></Point></Placemark><Placemark><name>Judo Club Usurbil</name><description><![CDATA[<a href="http://dev.dojolist/dojo/Judo Club Usurbil">View Details</a>]]></description><Point><coordinates>-2.049934,43.2713821</coordinates></Point></Placemark><Placemark><name>JC Raika Kirchberg</name><description><![CDATA[<a href="http://dev.dojolist/dojo/JC Raika Kirchberg">View Details</a>]]></description><Point><coordinates>12.318742,47.443647</coordinates></Point></Placemark><Placemark><name>Judokampfgemeinschaft Hellweg Unna</name><description><![CDATA[<a href="http://dev.dojolist/dojo/Judokampfgemeinschaft Hellweg Unna">View Details</a>]]></description><Point><coordinates>7.673821,51.533763</coordinates></Point></Placemark><Placemark><name>Parkwood Judo Club</name><description><![CDATA[<a href="http://dev.dojolist/dojo/Parkwood Judo Club">View Details</a>]]></description><Point><coordinates>0.590730,51.341960</coordinates></Point></Placemark><Placemark><name>Judo des allgemeinen Hochschulsports Dortmund</name><description><![CDATA[<a href="http://dev.dojolist/dojo/Judo des allgemeinen Hochschulsports Dortmund">View Details</a>]]></description><Point><coordinates>7.416576,51.489634</coordinates></Point></Placemark><Placemark><name>Torquay Judokwai</name><description><![CDATA[<a href="http://dev.dojolist/dojo/Torquay Judokwai">View Details</a>]]></description><Point><coordinates>-3.542662,50.487030</coordinates></Point></Placemark><Placemark><name>UBC Judo </name><description><![CDATA[<a href="http://dev.dojolist/dojo/UBC Judo ">View Details</a>]]></description><Point><coordinates>-123.248762,49.268466</coordinates></Point></Placemark><Placemark><name>Abbotsford Judo Club</name><description><![CDATA[<a href="http://dev.dojolist/dojo/Abbotsford Judo Club">View Details</a>]]></description><Point><coordinates>-122.354133,49.053430</coordinates></Point></Placemark><Placemark><name>Dundee Ippon Judo Club</name><description><![CDATA[<a href="http://dev.dojolist/dojo/Dundee Ippon Judo Club">View Details</a>]]></description><Point><coordinates>-2.872238,56.476127</coordinates></Point></Placemark><Placemark><name>PowerSource Martial Arts</name><description><![CDATA[<a href="http://dev.dojolist/dojo/PowerSource Martial Arts">View Details</a>]]></description><Point><coordinates>-87.665374,41.561460</coordinates></Point></Placemark><Placemark><name>New Westminster Judo Club</name><description><![CDATA[<a href="http://dev.dojolist/dojo/New Westminster Judo Club">View Details</a>]]></description><Point><coordinates>-122.906260,49.221118</coordinates></Point></Placemark><Placemark><name>TuS Syke e.V.</name><description><![CDATA[<a href="http://dev.dojolist/dojo/TuS Syke e.V.">View Details</a>]]></description><Point><coordinates>8.818844,52.910534</coordinates></Point></Placemark><Placemark><name>MTV Obernkirchen</name><description><![CDATA[<a href="http://dev.dojolist/dojo/MTV Obernkirchen">View Details</a>]]></description><Point><coordinates>9.126785,52.263863</coordinates></Point></Placemark><Placemark><name>Migoto Judo Dojo</name><description><![CDATA[<a href="http://dev.dojolist/dojo/Migoto Judo Dojo">View Details</a>]]></description><Point><coordinates>-117.032418,32.675145</coordinates></Point></Placemark><Placemark><name>Akitas Rayleigh Judo Club</name><description><![CDATA[<a href="http://dev.dojolist/dojo/Akitas Rayleigh Judo Club">View Details</a>]]></description><Point><coordinates>0.5979106,51.602900</coordinates></Point></Placemark><Placemark><name>Akitas Southend Judo Club</name><description><![CDATA[<a href="http://dev.dojolist/dojo/Akitas Southend Judo Club">View Details</a>]]></description><Point><coordinates>0.7130375,51.557542</coordinates></Point></Placemark><Placemark><name>Akitas Barling Magna Judo Club</name><description><![CDATA[<a href="http://dev.dojolist/dojo/Akitas Barling Magna Judo Club">View Details</a>]]></description><Point><coordinates>0.7838127,51.5684895</coordinates></Point></Placemark><Placemark><name>Shudo</name><description><![CDATA[<a href="http://dev.dojolist/dojo/Shudo">View Details</a>]]></description><Point><coordinates>0.775342,51.532171</coordinates></Point></Placemark><Placemark><name>Club de Judo Vallée-du-Richelieu</name><description><![CDATA[<a href="http://dev.dojolist/dojo/Club de Judo Vallée-du-Richelieu">View Details</a>]]></description><Point><coordinates>-73.184352,45.568646</coordinates></Point></Placemark><Placemark><name>Bayford Judo Club</name><description><![CDATA[<a href="http://dev.dojolist/dojo/Bayford Judo Club">View Details</a>]]></description><Point><coordinates> -0.110254,51.753515</coordinates></Point></Placemark><Placemark><name>TSV Hagen 1860 e.V. Judoabteilung</name><description><![CDATA[<a href="http://dev.dojolist/dojo/TSV Hagen 1860 e.V. Judoabteilung">View Details</a>]]></description><Point><coordinates>7.470703,51.334044</coordinates></Point></Placemark><Placemark><name>Kirkkonummen judoseura</name><description><![CDATA[<a href="http://dev.dojolist/dojo/Kirkkonummen judoseura">View Details</a>]]></description><Point><coordinates>24.442692,60.129538</coordinates></Point></Placemark><Placemark><name>Cambridge University Judo Club</name><description><![CDATA[<a href="http://dev.dojolist/dojo/Cambridge University Judo Club">View Details</a>]]></description><Point><coordinates>0.131066,52.199120</coordinates></Point></Placemark><Placemark><name>PostSV Telekom Augsburg</name><description><![CDATA[<a href="http://dev.dojolist/dojo/PostSV Telekom Augsburg">View Details</a>]]></description><Point><coordinates>10.886056,48.357698</coordinates></Point></Placemark><Placemark><name>Port Coquitlam Judo club</name><description><![CDATA[<a href="http://dev.dojolist/dojo/Port Coquitlam Judo club">View Details</a>]]></description><Point><coordinates>-122.751470,49.275410</coordinates></Point></Placemark><Placemark><name>Judo im Polizei-Sportverein Trier 1926 e.V.</name><description><![CDATA[<a href="http://dev.dojolist/dojo/Judo im Polizei-Sportverein Trier 1926 e.V.">View Details</a>]]></description><Point><coordinates>6.657213,49.764891</coordinates></Point></Placemark><Placemark><name>North Delta Judo and Jiu Jitsu</name><description><![CDATA[<a href="http://dev.dojolist/dojo/North Delta Judo and Jiu Jitsu">View Details</a>]]></description><Point><coordinates>-122.906295,49.157071</coordinates></Point></Placemark><Placemark><name>Moonrakers Judo Club</name><description><![CDATA[<a href="http://dev.dojolist/dojo/Moonrakers Judo Club">View Details</a>]]></description><Point><coordinates>-1.787199,51.069010</coordinates></Point></Placemark><Placemark><name>Erster Berliner Judo Club</name><description><![CDATA[<a href="http://dev.dojolist/dojo/Erster Berliner Judo Club">View Details</a>]]></description><Point><coordinates>13.431151,52.464377</coordinates></Point></Placemark><Placemark><name>SAV Judo</name><description><![CDATA[<a href="http://dev.dojolist/dojo/SAV Judo">View Details</a>]]></description><Point><coordinates>8.612782,53.184388</coordinates></Point></Placemark><Placemark><name>Kims Martial Arts</name><description><![CDATA[<a href="http://dev.dojolist/dojo/Kims Martial Arts">View Details</a>]]></description><Point><coordinates>-80.161776,40.676115</coordinates></Point></Placemark><Placemark><name>Judo Club Wiesbaden 1922 e.V.</name><description><![CDATA[<a href="http://dev.dojolist/dojo/Judo Club Wiesbaden 1922 e.V.">View Details</a>]]></description><Point><coordinates>8.234639,50.063737</coordinates></Point></Placemark><Placemark><name>Main Line Judo - Phoenixville</name><description><![CDATA[<a href="http://dev.dojolist/dojo/Main Line Judo - Phoenixville">View Details</a>]]></description><Point><coordinates>-75.516243,40.133741</coordinates></Point></Placemark><Placemark><name>M.E.C.C.A MMA</name><description><![CDATA[<a href="http://dev.dojolist/dojo/M.E.C.C.A MMA">View Details</a>]]></description><Point><coordinates>-79.404341,43.647174</coordinates></Point></Placemark><Placemark><name>Deeside Judo Club</name><description><![CDATA[<a href="http://dev.dojolist/dojo/Deeside Judo Club">View Details</a>]]></description><Point><coordinates>-3.030351,53.202661</coordinates></Point></Placemark><Placemark><name>Dartford Judo Club - British Performance Institute</name><description><![CDATA[<a href="http://dev.dojolist/dojo/Dartford Judo Club - British Performance Institute">View Details</a>]]></description><Point><coordinates>0.247107,51.446679</coordinates></Point></Placemark><Placemark><name>Long Eaton Judo Club</name><description><![CDATA[<a href="http://dev.dojolist/dojo/Long Eaton Judo Club">View Details</a>]]></description><Point><coordinates>-1.267548,52.897331</coordinates></Point></Placemark><Placemark><name>Ryecroft Judo Club</name><description><![CDATA[<a href="http://dev.dojolist/dojo/Ryecroft Judo Club">View Details</a>]]></description><Point><coordinates>-1.216006,52.923342</coordinates></Point></Placemark><Placemark><name>St Albans Judo Club</name><description><![CDATA[<a href="http://dev.dojolist/dojo/St Albans Judo Club">View Details</a>]]></description><Point><coordinates>-0.333152,51.763431</coordinates></Point></Placemark><Placemark><name>Kitsune-Gari Judokwai</name><description><![CDATA[<a href="http://dev.dojolist/dojo/Kitsune-Gari Judokwai">View Details</a>]]></description><Point><coordinates>-0.749881,52.028060</coordinates></Point></Placemark><Placemark><name>Judokas des TSV Bayer Dormagen</name><description><![CDATA[<a href="http://dev.dojolist/dojo/Judokas des TSV Bayer Dormagen">View Details</a>]]></description><Point><coordinates>6.847519,51.085477</coordinates></Point></Placemark><Placemark><name>University of Alberta Judo Club</name><description><![CDATA[<a href="http://dev.dojolist/dojo/University of Alberta Judo Club">View Details</a>]]></description><Point><coordinates>-113.527050,53.524161</coordinates></Point></Placemark><Placemark><name>Kanokai Judo Club</name><description><![CDATA[<a href="http://dev.dojolist/dojo/Kanokai Judo Club">View Details</a>]]></description><Point><coordinates>-62.641942,45.578125</coordinates></Point></Placemark><Placemark><name>Mayo Quanchi Judo</name><description><![CDATA[<a href="http://dev.dojolist/dojo/Mayo Quanchi Judo">View Details</a>]]></description><Point><coordinates>-71.532733,41.721442</coordinates></Point></Placemark><Placemark><name>North Miami National Training Center/Ki-Itsu-Sai Judo</name><description><![CDATA[<a href="http://dev.dojolist/dojo/North Miami National Training Center/Ki-Itsu-Sai Judo">View Details</a>]]></description><Point><coordinates>-80.277658,26.287057</coordinates></Point></Placemark><Placemark><name>Checkmate Self Defense</name><description><![CDATA[<a href="http://dev.dojolist/dojo/Checkmate Self Defense">View Details</a>]]></description><Point><coordinates>-71.468157,42.990694</coordinates></Point></Placemark><Placemark><name>Willesden Judo Club</name><description><![CDATA[<a href="http://dev.dojolist/dojo/Willesden Judo Club">View Details</a>]]></description><Point><coordinates>-0.229876,51.541050</coordinates></Point></Placemark><Placemark><name>KyuRyu AikiBudo / Aikido  Judo</name><description><![CDATA[<a href="http://dev.dojolist/dojo/KyuRyu AikiBudo / Aikido  Judo">View Details</a>]]></description><Point><coordinates>-97.772599,30.245807</coordinates></Point></Placemark><Placemark><name>Masakatsu Aikido</name><description><![CDATA[<a href="http://dev.dojolist/dojo/Masakatsu Aikido">View Details</a>]]></description><Point><coordinates>-3.28805,50.766005</coordinates></Point></Placemark><Placemark><name>Tohoku Judo Club</name><description><![CDATA[<a href="http://dev.dojolist/dojo/Tohoku Judo Club">View Details</a>]]></description><Point><coordinates>-71.102657,42.381880</coordinates></Point></Placemark><Placemark><name>Judo Club Catalan</name><description><![CDATA[<a href="http://dev.dojolist/dojo/Judo Club Catalan">View Details</a>]]></description><Point><coordinates>2.912826,42.689136</coordinates></Point></Placemark><Placemark><name>Canterbury Judokwai</name><description><![CDATA[<a href="http://dev.dojolist/dojo/Canterbury Judokwai">View Details</a>]]></description><Point><coordinates>1.095371,51.285031</coordinates></Point></Placemark><Placemark><name>Erdington Judo Club</name><description><![CDATA[<a href="http://dev.dojolist/dojo/Erdington Judo Club">View Details</a>]]></description><Point><coordinates>-1.848643,52.515921</coordinates></Point></Placemark><Placemark><name>University of Nottingham Judo Club</name><description><![CDATA[<a href="http://dev.dojolist/dojo/University of Nottingham Judo Club">View Details</a>]]></description><Point><coordinates>-1.183949,52.951870</coordinates></Point></Placemark><Placemark><name>Edinburgh BushidoJudo </name><description><![CDATA[<a href="http://dev.dojolist/dojo/Edinburgh BushidoJudo ">View Details</a>]]></description><Point><coordinates>,</coordinates></Point></Placemark><Placemark><name>Comberton Judo Club</name><description><![CDATA[<a href="http://dev.dojolist/dojo/Comberton Judo Club">View Details</a>]]></description><Point><coordinates>0.01561,52.186683</coordinates></Point></Placemark><Placemark><name>Aptos Judo Club</name><description><![CDATA[<a href="http://dev.dojolist/dojo/Aptos Judo Club">View Details</a>]]></description><Point><coordinates>-121.899147,36.978421</coordinates></Point></Placemark><Placemark><name>Sacramento Judo Club</name><description><![CDATA[<a href="http://dev.dojolist/dojo/Sacramento Judo Club">View Details</a>]]></description><Point><coordinates>-121.473770,38.525070</coordinates></Point></Placemark><Placemark><name>Salinas Judo Club, Hokka Yudanshakai</name><description><![CDATA[<a href="http://dev.dojolist/dojo/Salinas Judo Club, Hokka Yudanshakai">View Details</a>]]></description><Point><coordinates>-121.659508,36.669245</coordinates></Point></Placemark><Placemark><name>Stockton Judo Club, Daihegen Yudanshakai</name><description><![CDATA[<a href="http://dev.dojolist/dojo/Stockton Judo Club, Daihegen Yudanshakai">View Details</a>]]></description><Point><coordinates>-121.279449,37.926055</coordinates></Point></Placemark><Placemark><name>Bojuka-ryu Martial Arts Dojo</name><description><![CDATA[<a href="http://dev.dojolist/dojo/Bojuka-ryu Martial Arts Dojo">View Details</a>]]></description><Point><coordinates>-121.795120,36.679984</coordinates></Point></Placemark><Placemark><name>NPS Judo Club, Naval Postgraduate School, Monterey, CA</name><description><![CDATA[<a href="http://dev.dojolist/dojo/NPS Judo Club, Naval Postgraduate School, Monterey, CA">View Details</a>]]></description><Point><coordinates>-121.886787,36.597062</coordinates></Point></Placemark><Placemark><name>Taoki Club - Luz-Saint-Sauveur</name><description><![CDATA[<a href="http://dev.dojolist/dojo/Taoki Club - Luz-Saint-Sauveur">View Details</a>]]></description><Point><coordinates>-0.004845,42.870842</coordinates></Point></Placemark><Placemark><name>Scuola Kyu Shin Do Kai</name><description><![CDATA[<a href="http://dev.dojolist/dojo/Scuola Kyu Shin Do Kai">View Details</a>]]></description><Point><coordinates>10.327592,44.827169</coordinates></Point></Placemark><Placemark><name>Olympic Judo Benet</name><description><![CDATA[<a href="http://dev.dojolist/dojo/Olympic Judo Benet">View Details</a>]]></description><Point><coordinates>-0.584556,46.369167</coordinates></Point></Placemark><Placemark><name>NJC Satori</name><description><![CDATA[<a href="http://dev.dojolist/dojo/NJC Satori">View Details</a>]]></description><Point><coordinates>-1.556745,47.216842</coordinates></Point></Placemark><Placemark><name>Mont Saint-Aignan Judo - JC Bondevillais</name><description><![CDATA[<a href="http://dev.dojolist/dojo/Mont Saint-Aignan Judo - JC Bondevillais">View Details</a>]]></description><Point><coordinates>1.090046,49.468980</coordinates></Point></Placemark><Placemark><name>Metz Judo Ju-Jitsu</name><description><![CDATA[<a href="http://dev.dojolist/dojo/Metz Judo Ju-Jitsu">View Details</a>]]></description><Point><coordinates>6.172696,49.116127</coordinates></Point></Placemark><Placemark><name>Le Pré Saint-Gervais Judo</name><description><![CDATA[<a href="http://dev.dojolist/dojo/Le Pré Saint-Gervais Judo">View Details</a>]]></description><Point><coordinates>2.403825,48.885449</coordinates></Point></Placemark><Placemark><name>Judo Sambo Club de Honfleur</name><description><![CDATA[<a href="http://dev.dojolist/dojo/Judo Sambo Club de Honfleur">View Details</a>]]></description><Point><coordinates>0.232603,49.419469</coordinates></Point></Placemark><Placemark><name>Judo Rumilly</name><description><![CDATA[<a href="http://dev.dojolist/dojo/Judo Rumilly">View Details</a>]]></description><Point><coordinates>5.942085,45.867314</coordinates></Point></Placemark><Placemark><name>Judo Ju-Jitsu Dudelange</name><description><![CDATA[<a href="http://dev.dojolist/dojo/Judo Ju-Jitsu Dudelange">View Details</a>]]></description><Point><coordinates>6.085421,49.479718</coordinates></Point></Placemark><Placemark><name>Judo Force XV</name><description><![CDATA[<a href="http://dev.dojolist/dojo/Judo Force XV">View Details</a>]]></description><Point><coordinates>2.279130,48.840281</coordinates></Point></Placemark><Placemark><name>Judo Club Raincéen</name><description><![CDATA[<a href="http://dev.dojolist/dojo/Judo Club Raincéen">View Details</a>]]></description><Point><coordinates>2.517284,48.899082</coordinates></Point></Placemark><Placemark><name>Judo Club Morestel</name><description><![CDATA[<a href="http://dev.dojolist/dojo/Judo Club Morestel">View Details</a>]]></description><Point><coordinates>5.478597,45.674437</coordinates></Point></Placemark><Placemark><name>Judo Club Laudun</name><description><![CDATA[<a href="http://dev.dojolist/dojo/Judo Club Laudun">View Details</a>]]></description><Point><coordinates>4.658152,44.106562</coordinates></Point></Placemark><Placemark><name>Judo Club La Française</name><description><![CDATA[<a href="http://dev.dojolist/dojo/Judo Club La Française">View Details</a>]]></description><Point><coordinates>-61.083340,14.600000</coordinates></Point></Placemark><Placemark><name>Judo Club du Plateau Bortois</name><description><![CDATA[<a href="http://dev.dojolist/dojo/Judo Club du Plateau Bortois">View Details</a>]]></description><Point><coordinates>2.402913,45.416173</coordinates></Point></Placemark><Placemark><name>Judo Club des Avirons</name><description><![CDATA[<a href="http://dev.dojolist/dojo/Judo Club des Avirons">View Details</a>]]></description><Point><coordinates>55.311584,-21.228510</coordinates></Point></Placemark><Placemark><name>AS Etaples Judo</name><description><![CDATA[<a href="http://dev.dojolist/dojo/AS Etaples Judo">View Details</a>]]></description><Point><coordinates>1.639662,50.517344</coordinates></Point></Placemark><Placemark><name>asptt judo strasbourg</name><description><![CDATA[<a href="http://dev.dojolist/dojo/asptt judo strasbourg">View Details</a>]]></description><Point><coordinates>7.743749,48.582933</coordinates></Point></Placemark><Placemark><name>ASVCM Judo</name><description><![CDATA[<a href="http://dev.dojolist/dojo/ASVCM Judo">View Details</a>]]></description><Point><coordinates>2.275823,48.763393</coordinates></Point></Placemark><Placemark><name>Alliance Judo Dordogne Périgord</name><description><![CDATA[<a href="http://dev.dojolist/dojo/Alliance Judo Dordogne Périgord">View Details</a>]]></description><Point><coordinates>0.721835,45.186798</coordinates></Point></Placemark><Placemark><name>Alliance Judo 91 Longjumeau Massy</name><description><![CDATA[<a href="http://dev.dojolist/dojo/Alliance Judo 91 Longjumeau Massy">View Details</a>]]></description><Point><coordinates>2.324372,48.671980</coordinates></Point></Placemark><Placemark><name>Dojo Nivernais</name><description><![CDATA[<a href="http://dev.dojolist/dojo/Dojo Nivernais">View Details</a>]]></description><Point><coordinates>3.161000,46.986761</coordinates></Point></Placemark><Placemark><name>Amicale Laïque Victor Hugo</name><description><![CDATA[<a href="http://dev.dojolist/dojo/Amicale Laïque Victor Hugo">View Details</a>]]></description><Point><coordinates>6.146589,48.678425</coordinates></Point></Placemark><Placemark><name>AD71 Judo Club Blanzynois</name><description><![CDATA[<a href="http://dev.dojolist/dojo/AD71 Judo Club Blanzynois">View Details</a>]]></description><Point><coordinates>4.389057,46.700954</coordinates></Point></Placemark><Placemark><name>ESSM Judo</name><description><![CDATA[<a href="http://dev.dojolist/dojo/ESSM Judo">View Details</a>]]></description><Point><coordinates>5.755030,45.179257</coordinates></Point></Placemark><Placemark><name>Dojo Brestois</name><description><![CDATA[<a href="http://dev.dojolist/dojo/Dojo Brestois">View Details</a>]]></description><Point><coordinates>-4.484488,48.388364</coordinates></Point></Placemark><Placemark><name>Sturton Judo Club</name><description><![CDATA[<a href="http://dev.dojolist/dojo/Sturton Judo Club">View Details</a>]]></description><Point><coordinates>-0.666019,53.313842</coordinates></Point></Placemark><Placemark><name>Whiteswood Lane Judo Club</name><description><![CDATA[<a href="http://dev.dojolist/dojo/Whiteswood Lane Judo Club">View Details</a>]]></description><Point><coordinates>-0.769107,53.407255</coordinates></Point></Placemark><Placemark><name>Judo Club Auzeville</name><description><![CDATA[<a href="http://dev.dojolist/dojo/Judo Club Auzeville">View Details</a>]]></description><Point><coordinates>1.482104,43.528349</coordinates></Point></Placemark><Placemark><name>Futur-Ô-Club Judo Poitiers</name><description><![CDATA[<a href="http://dev.dojolist/dojo/Futur-Ô-Club Judo Poitiers">View Details</a>]]></description><Point><coordinates>0.342648,46.586986</coordinates></Point></Placemark><Placemark><name>Judo Club Chauny</name><description><![CDATA[<a href="http://dev.dojolist/dojo/Judo Club Chauny">View Details</a>]]></description><Point><coordinates>3.219893,49.612934</coordinates></Point></Placemark><Placemark><name>Judo Club de Pujaut</name><description><![CDATA[<a href="http://dev.dojolist/dojo/Judo Club de Pujaut">View Details</a>]]></description><Point><coordinates>4.776798,44.005984</coordinates></Point></Placemark><Placemark><name>High Wycombe Judo Club</name><description><![CDATA[<a href="http://dev.dojolist/dojo/High Wycombe Judo Club">View Details</a>]]></description><Point><coordinates>-0.787218,51.616538</coordinates></Point></Placemark><Placemark><name>Reading Judo Club</name><description><![CDATA[<a href="http://dev.dojolist/dojo/Reading Judo Club">View Details</a>]]></description><Point><coordinates>-0.984821,51.465064</coordinates></Point></Placemark><Placemark><name>Skegness Judo Club</name><description><![CDATA[<a href="http://dev.dojolist/dojo/Skegness Judo Club">View Details</a>]]></description><Point><coordinates>0.332969,53.149055</coordinates></Point></Placemark><Placemark><name>Emmer Green Judo/Jujitsu Club</name><description><![CDATA[<a href="http://dev.dojolist/dojo/Emmer Green Judo/Jujitsu Club">View Details</a>]]></description><Point><coordinates>-0.970176,51.483200</coordinates></Point></Placemark><Placemark><name>Sonning Common Judo Club</name><description><![CDATA[<a href="http://dev.dojolist/dojo/Sonning Common Judo Club">View Details</a>]]></description><Point><coordinates>-0.992782,51.514298</coordinates></Point></Placemark><Placemark><name>Trondheim Judokwai</name><description><![CDATA[<a href="http://dev.dojolist/dojo/Trondheim Judokwai">View Details</a>]]></description><Point><coordinates>10.368133,63.431283</coordinates></Point></Placemark><Placemark><name>Tromsø judoklubb</name><description><![CDATA[<a href="http://dev.dojolist/dojo/Tromsø judoklubb">View Details</a>]]></description><Point><coordinates>18.937426,69.660726</coordinates></Point></Placemark><Placemark><name>Steinkjer Judoklubb</name><description><![CDATA[<a href="http://dev.dojolist/dojo/Steinkjer Judoklubb">View Details</a>]]></description><Point><coordinates>11.486034,64.021565</coordinates></Point></Placemark><Placemark><name>Svalbard Turn - Kampsportgruppa</name><description><![CDATA[<a href="http://dev.dojolist/dojo/Svalbard Turn - Kampsportgruppa">View Details</a>]]></description><Point><coordinates>11.413240,78.479720</coordinates></Point></Placemark><Placemark><name>Stjørdal Judoklubb</name><description><![CDATA[<a href="http://dev.dojolist/dojo/Stjørdal Judoklubb">View Details</a>]]></description><Point><coordinates>10.934787,63.479191</coordinates></Point></Placemark><Placemark><name>Snåsa Judoklubb</name><description><![CDATA[<a href="http://dev.dojolist/dojo/Snåsa Judoklubb">View Details</a>]]></description><Point><coordinates>12.557030,64.263735</coordinates></Point></Placemark><Placemark><name>Stavanger Judoklubb</name><description><![CDATA[<a href="http://dev.dojolist/dojo/Stavanger Judoklubb">View Details</a>]]></description><Point><coordinates>5.752158,58.946289</coordinates></Point></Placemark><Placemark><name>Slemdal Judoklubb</name><description><![CDATA[<a href="http://dev.dojolist/dojo/Slemdal Judoklubb">View Details</a>]]></description><Point><coordinates>10.651009,59.970595</coordinates></Point></Placemark><Placemark><name>Sotra Judoklubb</name><description><![CDATA[<a href="http://dev.dojolist/dojo/Sotra Judoklubb">View Details</a>]]></description><Point><coordinates>5.121520,60.359900</coordinates></Point></Placemark><Placemark><name>Sofiemyr Judokwai</name><description><![CDATA[<a href="http://dev.dojolist/dojo/Sofiemyr Judokwai">View Details</a>]]></description><Point><coordinates>10.815160,59.797472</coordinates></Point></Placemark><Placemark><name>Sortland Judoklubb</name><description><![CDATA[<a href="http://dev.dojolist/dojo/Sortland Judoklubb">View Details</a>]]></description><Point><coordinates>15.402489,68.692264</coordinates></Point></Placemark><Placemark><name>Levanger Judoklubb</name><description><![CDATA[<a href="http://dev.dojolist/dojo/Levanger Judoklubb">View Details</a>]]></description><Point><coordinates>11.306477,63.748187</coordinates></Point></Placemark><Placemark><name>Oslo Judo Klubb</name><description><![CDATA[<a href="http://dev.dojolist/dojo/Oslo Judo Klubb">View Details</a>]]></description><Point><coordinates>10.846295,59.863748</coordinates></Point></Placemark><Placemark><name>Ringerike Judoklubb</name><description><![CDATA[<a href="http://dev.dojolist/dojo/Ringerike Judoklubb">View Details</a>]]></description><Point><coordinates>10.163383,60.272685</coordinates></Point></Placemark><Placemark><name>Romerike Judoklubb</name><description><![CDATA[<a href="http://dev.dojolist/dojo/Romerike Judoklubb">View Details</a>]]></description><Point><coordinates>11.036668,59.988921</coordinates></Point></Placemark><Placemark><name>Rosendal Turnlag-Judo</name><description><![CDATA[<a href="http://dev.dojolist/dojo/Rosendal Turnlag-Judo">View Details</a>]]></description><Point><coordinates>6.015422,59.983779</coordinates></Point></Placemark><Placemark><name>Sande SK - Judo</name><description><![CDATA[<a href="http://dev.dojolist/dojo/Sande SK - Judo">View Details</a>]]></description><Point><coordinates>10.243721,59.601356</coordinates></Point></Placemark><Placemark><name>Sandefjord Judoklubb</name><description><![CDATA[<a href="http://dev.dojolist/dojo/Sandefjord Judoklubb">View Details</a>]]></description><Point><coordinates>10.272260,59.125138</coordinates></Point></Placemark><Placemark><name>Sandnes Judoklubb</name><description><![CDATA[<a href="http://dev.dojolist/dojo/Sandnes Judoklubb">View Details</a>]]></description><Point><coordinates>5.714028,58.852926</coordinates></Point></Placemark><Placemark><name>Sentrum kampsportsenter</name><description><![CDATA[<a href="http://dev.dojolist/dojo/Sentrum kampsportsenter">View Details</a>]]></description><Point><coordinates>11.093531,59.282391</coordinates></Point></Placemark><Placemark><name>Ski Judo og Ju-Jitsuklubb</name><description><![CDATA[<a href="http://dev.dojolist/dojo/Ski Judo og Ju-Jitsuklubb">View Details</a>]]></description><Point><coordinates>10.839193,59.707833</coordinates></Point></Placemark><Placemark><name>Skien Judoklubb</name><description><![CDATA[<a href="http://dev.dojolist/dojo/Skien Judoklubb">View Details</a>]]></description><Point><coordinates>9.736966,59.016311</coordinates></Point></Placemark><Placemark><name>Nesodden Judoklubb</name><description><![CDATA[<a href="http://dev.dojolist/dojo/Nesodden Judoklubb">View Details</a>]]></description><Point><coordinates>10.673904,59.842400</coordinates></Point></Placemark><Placemark><name>Lier Judoklubb</name><description><![CDATA[<a href="http://dev.dojolist/dojo/Lier Judoklubb">View Details</a>]]></description><Point><coordinates>10.263033,59.805707</coordinates></Point></Placemark><Placemark><name>Møysalen IL-Judogruppe</name><description><![CDATA[<a href="http://dev.dojolist/dojo/Møysalen IL-Judogruppe">View Details</a>]]></description><Point><coordinates>15.224304,68.531753</coordinates></Point></Placemark><Placemark><name>Namsos Judo Club</name><description><![CDATA[<a href="http://dev.dojolist/dojo/Namsos Judo Club">View Details</a>]]></description><Point><coordinates>11.509037,64.475087</coordinates></Point></Placemark><Placemark><name>Nordre Land IL-Judogruppa</name><description><![CDATA[<a href="http://dev.dojolist/dojo/Nordre Land IL-Judogruppa">View Details</a>]]></description><Point><coordinates>10.071802,60.844325</coordinates></Point></Placemark><Placemark><name>Nidaros Judo</name><description><![CDATA[<a href="http://dev.dojolist/dojo/Nidaros Judo">View Details</a>]]></description><Point><coordinates>10.381136,63.358827</coordinates></Point></Placemark><Placemark><name>NTNUI Judo</name><description><![CDATA[<a href="http://dev.dojolist/dojo/NTNUI Judo">View Details</a>]]></description><Point><coordinates>10.396843,63.431398</coordinates></Point></Placemark><Placemark><name>Norsk Judo og Jiu-jitsu Klubb</name><description><![CDATA[<a href="http://dev.dojolist/dojo/Norsk Judo og Jiu-jitsu Klubb">View Details</a>]]></description><Point><coordinates>10.860227,59.922407</coordinates></Point></Placemark><Placemark><name>Drammen Judo Club</name><description><![CDATA[<a href="http://dev.dojolist/dojo/Drammen Judo Club">View Details</a>]]></description><Point><coordinates>10.218143,59.743942</coordinates></Point></Placemark><Placemark><name>Nærøy Judoklubb</name><description><![CDATA[<a href="http://dev.dojolist/dojo/Nærøy Judoklubb">View Details</a>]]></description><Point><coordinates>11.604652,64.858347</coordinates></Point></Placemark><Placemark><name>IL-Stålkameratene-Judogruppa</name><description><![CDATA[<a href="http://dev.dojolist/dojo/IL-Stålkameratene-Judogruppa">View Details</a>]]></description><Point><coordinates>14.153395,66.318069</coordinates></Point></Placemark><Placemark><name>Ippon Judoklubb</name><description><![CDATA[<a href="http://dev.dojolist/dojo/Ippon Judoklubb">View Details</a>]]></description><Point><coordinates>10.583439,59.921818</coordinates></Point></Placemark><Placemark><name>Jessheim Judoklubb</name><description><![CDATA[<a href="http://dev.dojolist/dojo/Jessheim Judoklubb">View Details</a>]]></description><Point><coordinates>11.179790,60.149751</coordinates></Point></Placemark><Placemark><name>Judo Klubb Stord</name><description><![CDATA[<a href="http://dev.dojolist/dojo/Judo Klubb Stord">View Details</a>]]></description><Point><coordinates>5.513592,59.797267</coordinates></Point></Placemark><Placemark><name>Kinsa Judoklubb</name><description><![CDATA[<a href="http://dev.dojolist/dojo/Kinsa Judoklubb">View Details</a>]]></description><Point><coordinates>11.179876,60.283983</coordinates></Point></Placemark><Placemark><name>Kragerø Judoklubb</name><description><![CDATA[<a href="http://dev.dojolist/dojo/Kragerø Judoklubb">View Details</a>]]></description><Point><coordinates>9.407902,58.869431</coordinates></Point></Placemark><Placemark><name>Kristiansund og Omegn Judoklubb</name><description><![CDATA[<a href="http://dev.dojolist/dojo/Kristiansund og Omegn Judoklubb">View Details</a>]]></description><Point><coordinates>7.741756,63.120769</coordinates></Point></Placemark><Placemark><name>Krokstad Judoklubb</name><description><![CDATA[<a href="http://dev.dojolist/dojo/Krokstad Judoklubb">View Details</a>]]></description><Point><coordinates>10.028415,59.756006</coordinates></Point></Placemark><Placemark><name>Kråkerøy Judo Club</name><description><![CDATA[<a href="http://dev.dojolist/dojo/Kråkerøy Judo Club">View Details</a>]]></description><Point><coordinates>10.926590,59.177072</coordinates></Point></Placemark><Placemark><name>Larvik Judoklubb</name><description><![CDATA[<a href="http://dev.dojolist/dojo/Larvik Judoklubb">View Details</a>]]></description><Point><coordinates>10.042362,59.050179</coordinates></Point></Placemark><Placemark><name>Harstad Judoklubb</name><description><![CDATA[<a href="http://dev.dojolist/dojo/Harstad Judoklubb">View Details</a>]]></description><Point><coordinates>16.535969,68.802586</coordinates></Point></Placemark><Placemark><name>Haugaland Judoklubb</name><description><![CDATA[<a href="http://dev.dojolist/dojo/Haugaland Judoklubb">View Details</a>]]></description><Point><coordinates>5.270047,59.438235</coordinates></Point></Placemark><Placemark><name>IL Nordstjerna Judo</name><description><![CDATA[<a href="http://dev.dojolist/dojo/IL Nordstjerna Judo">View Details</a>]]></description><Point><coordinates>22.299328,70.021995</coordinates></Point></Placemark><Placemark><name>Judo Club Abbevillois</name><description><![CDATA[<a href="http://dev.dojolist/dojo/Judo Club Abbevillois">View Details</a>]]></description><Point><coordinates>1.837228,50.106883</coordinates></Point></Placemark><Placemark><name>Elverum Judoklubb</name><description><![CDATA[<a href="http://dev.dojolist/dojo/Elverum Judoklubb">View Details</a>]]></description><Point><coordinates>11.540451,60.889788</coordinates></Point></Placemark><Placemark><name>Fredrikstad Kampsportklubb - Judo</name><description><![CDATA[<a href="http://dev.dojolist/dojo/Fredrikstad Kampsportklubb - Judo">View Details</a>]]></description><Point><coordinates>10.945773,59.212906</coordinates></Point></Placemark><Placemark><name>Førde Judoklubb</name><description><![CDATA[<a href="http://dev.dojolist/dojo/Førde Judoklubb">View Details</a>]]></description><Point><coordinates>5.843182,61.450666</coordinates></Point></Placemark><Placemark><name>CSPSE Judo Jujitsu</name><description><![CDATA[<a href="http://dev.dojolist/dojo/CSPSE Judo Jujitsu">View Details</a>]]></description><Point><coordinates>2.394571,48.833797</coordinates></Point></Placemark><Placemark><name>Gratangen IL-Judogruppa</name><description><![CDATA[<a href="http://dev.dojolist/dojo/Gratangen IL-Judogruppa">View Details</a>]]></description><Point><coordinates>17.541561,68.691515</coordinates></Point></Placemark><Placemark><name>Hamar Judoklubb</name><description><![CDATA[<a href="http://dev.dojolist/dojo/Hamar Judoklubb">View Details</a>]]></description><Point><coordinates>11.100097,60.804429</coordinates></Point></Placemark><Placemark><name>Aktiv Judo del av Aktiv Kickboxing  and  Kampsport Klubb</name><description><![CDATA[<a href="http://dev.dojolist/dojo/Aktiv Judo del av Aktiv Kickboxing  and  Kampsport Klubb">View Details</a>]]></description><Point><coordinates>5.728503,58.910724</coordinates></Point></Placemark><Placemark><name>Alta Judoklubb</name><description><![CDATA[<a href="http://dev.dojolist/dojo/Alta Judoklubb">View Details</a>]]></description><Point><coordinates>23.270245,69.979959</coordinates></Point></Placemark><Placemark><name>Aurskog-Høland Judoklubb</name><description><![CDATA[<a href="http://dev.dojolist/dojo/Aurskog-Høland Judoklubb">View Details</a>]]></description><Point><coordinates>11.479683,59.926291</coordinates></Point></Placemark><Placemark><name>Bardal Judoklubb</name><description><![CDATA[<a href="http://dev.dojolist/dojo/Bardal Judoklubb">View Details</a>]]></description><Point><coordinates>13.400000,66.216667</coordinates></Point></Placemark><Placemark><name>Bodø Judo Club</name><description><![CDATA[<a href="http://dev.dojolist/dojo/Bodø Judo Club">View Details</a>]]></description><Point><coordinates>14.395008,67.280464</coordinates></Point></Placemark><Placemark><name>Bergen Judo Klubb</name><description><![CDATA[<a href="http://dev.dojolist/dojo/Bergen Judo Klubb">View Details</a>]]></description><Point><coordinates>5.330944,60.386041</coordinates></Point></Placemark><Placemark><name>USV Jena</name><description><![CDATA[<a href="http://dev.dojolist/dojo/USV Jena">View Details</a>]]></description><Point><coordinates>11.583264,50.918294</coordinates></Point></Placemark><Placemark><name>BSI-Judo</name><description><![CDATA[<a href="http://dev.dojolist/dojo/BSI-Judo">View Details</a>]]></description><Point><coordinates>5.328455,60.385479</coordinates></Point></Placemark><Placemark><name>Budosør</name><description><![CDATA[<a href="http://dev.dojolist/dojo/Budosør">View Details</a>]]></description><Point><coordinates>7.998047,58.149149</coordinates></Point></Placemark><Placemark><name>Palo Alto Judo Club</name><description><![CDATA[<a href="http://dev.dojolist/dojo/Palo Alto Judo Club">View Details</a>]]></description><Point><coordinates>-122.115698,37.420822</coordinates></Point></Placemark><Placemark><name>Cercle de Judo d´Esch-sur-Alzette</name><description><![CDATA[<a href="http://dev.dojolist/dojo/Cercle de Judo d´Esch-sur-Alzette">View Details</a>]]></description><Point><coordinates>5.974876,49.491745</coordinates></Point></Placemark>