<?xml version="1.0" encoding="UTF-8"?>
    <kml xmlns="http://www.opengis.net/kml/2.2">
	<!-- The data created by DojoList by
	<a xmlns:cc="http://creativecommons.org/ns#"
	href="http://github.com/lancew/DojoList"
	property="cc:attributionName"
	rel="cc:attributionURL">Lance Wicks</a>
	 is licensed under a <a rel="license"
	 href="http://creativecommons.org/licenses/by-nc-sa/2.0/uk/">
	 Creative Commons Attribution-Noncommercial-Share Alike 2.0
	 UK: England &amp; Wales License</a>.
	 Some data imported from www.judoworldmap.com by
	 Ulrich Wisser under a Creative Commons NC-SA License. -->
    <Document>
    <name>Dojo List</name><Placemark><name>Alresford Judo Club</name><description><![CDATA[]]></description><Point><coordinates>-1.159517,51.08527</coordinates></Point></Placemark><Placemark><name>Alton Judo Club</name><description><![CDATA[]]></description><Point><coordinates>-0.9942,51.13735</coordinates></Point></Placemark><Placemark><name>Applemore Judokwai</name><description><![CDATA[]]></description><Point><coordinates>-1.3660118,50.8636769</coordinates></Point></Placemark><Placemark><name>AWE Judo Club</name><description><![CDATA[]]></description><Point><coordinates>-1.1537209,51.3544589</coordinates></Point></Placemark><Placemark><name>Basingstoke Judo Club</name><description><![CDATA[]]></description><Point><coordinates>-1.147398,51.2732846</coordinates></Point></Placemark><Placemark><name>Breamore School Judo CLub</name><description><![CDATA[]]></description><Point><coordinates>-1.7884699,50.9286499</coordinates></Point></Placemark><Placemark><name>Brighton Hill Judo Club</name><description><![CDATA[]]></description><Point><coordinates>-1.1192596,51.2395196</coordinates></Point></Placemark><Placemark><name>Cosham CA Judo Club</name><description><![CDATA[]]></description><Point><coordinates>-1.0744455,50.8485036</coordinates></Point></Placemark><Placemark><name>Court Lane Judo Club Cosham Portsmouth Hants </name><description><![CDATA[]]></description><Point><coordinates>-1.0363021,50.8462461</coordinates></Point></Placemark><Placemark><name>Crofton Judo Club</name><description><![CDATA[]]></description><Point><coordinates>-1.2089532,50.8273479</coordinates></Point></Placemark><Placemark><name>Devonshire Infants</name><description><![CDATA[]]></description><Point><coordinates>-1.071084,50.7908403</coordinates></Point></Placemark><Placemark><name>Eastleigh Judokwai</name><description><![CDATA[]]></description><Point><coordinates>-1.369626,50.966672</coordinates></Point></Placemark><Placemark><name>Fernhurst Junior School CSJ</name><description><![CDATA[]]></description><Point><coordinates>-1.071307,50.790317</coordinates></Point></Placemark><Placemark><name>Fleet and Frogmore Judo Club</name><description><![CDATA[]]></description><Point><coordinates>-0.813267,51.33672</coordinates></Point></Placemark><Placemark><name>Fleming Park Judo Club</name><description><![CDATA[]]></description><Point><coordinates>-1.3741026,50.9879376</coordinates></Point></Placemark><Placemark><name>Fort Purbrook Judo Club</name><description><![CDATA[]]></description><Point><coordinates>-1.049812,50.8532733</coordinates></Point></Placemark><Placemark><name>Gosport Judokwai</name><description><![CDATA[]]></description><Point><coordinates>-1.1545633,50.8009288</coordinates></Point></Placemark><Placemark><name>Guernsey Judo</name><description><![CDATA[]]></description><Point><coordinates>-2.585278,49.465691</coordinates></Point></Placemark><Placemark><name>Guernsey Judo Club Beechwood</name><description><![CDATA[]]></description><Point><coordinates>-2.5496172,49.4457285</coordinates></Point></Placemark><Placemark><name>Havant Judo Kwai</name><description><![CDATA[]]></description><Point><coordinates>-0.9855933,50.8566072</coordinates></Point></Placemark><Placemark><name>Holbrook Judo Club </name><description><![CDATA[]]></description><Point><coordinates>-1.1290701,50.7946636</coordinates></Point></Placemark><Placemark><name>Holbrook Sarisbury Green Judo Club </name><description><![CDATA[]]></description><Point><coordinates>-1.2873586,50.8732661</coordinates></Point></Placemark><Placemark><name>Jersey Judo Club</name><description><![CDATA[]]></description><Point><coordinates>-2.0570285,49.1741873</coordinates></Point></Placemark><Placemark><name>Kiaisan Judo Club</name><description><![CDATA[]]></description><Point><coordinates>-0.86371,51.27821</coordinates></Point></Placemark><Placemark><name>Kings Court School</name><description><![CDATA[]]></description><Point><coordinates>-1.0121384,50.9063197</coordinates></Point></Placemark><Placemark><name>Langstone School </name><description><![CDATA[]]></description><Point><coordinates>-1.057123,50.806408</coordinates></Point></Placemark><Placemark><name>Matsumachi Judo Club</name><description><![CDATA[]]></description><Point><coordinates>-1.7675213,50.7348817</coordinates></Point></Placemark><Placemark><name>Meridian Judo Club</name><description><![CDATA[]]></description><Point><coordinates>-0.97819,50.829374</coordinates></Point></Placemark><Placemark><name>New Forest Park Judo Club </name><description><![CDATA[]]></description><Point><coordinates>-1.5267763,50.8877193</coordinates></Point></Placemark><Placemark><name>Oaklands Judo Club</name><description><![CDATA[]]></description><Point><coordinates>-1.195136,50.907504</coordinates></Point></Placemark><Placemark><name>Judo Club Osaka</name><description><![CDATA[]]></description><Point><coordinates>-0.741952,51.238409</coordinates></Point></Placemark><Placemark><name>Judo Club Osaka Hawley</name><description><![CDATA[]]></description><Point><coordinates>-0.76233,51.311743</coordinates></Point></Placemark><Placemark><name>Paul Jones School of Judo </name><description><![CDATA[]]></description><Point><coordinates>-1.071954,51.259141</coordinates></Point></Placemark><Placemark><name>Portsmouth Judo Club</name><description><![CDATA[]]></description><Point><coordinates>-1.0744455,50.8485036</coordinates></Point></Placemark><Placemark><name>Portsmouth Grammar School Judo Club</name><description><![CDATA[]]></description><Point><coordinates>-1.1028953,50.78973</coordinates></Point></Placemark><Placemark><name>Premier School of Judo</name><description><![CDATA[]]></description><Point><coordinates>-1.310752,50.90756</coordinates></Point></Placemark><Placemark><name>Priory Judokwai C.S.J</name><description><![CDATA[]]></description><Point><coordinates>-1.075378,50.790801</coordinates></Point></Placemark><Placemark><name>Ringwood and Fordingbridge Judo Club</name><description><![CDATA[]]></description><Point><coordinates>-1.7823128,50.8307017</coordinates></Point></Placemark><Placemark><name>River Park Judo Club</name><description><![CDATA[]]></description><Point><coordinates>-1.312422,51.067304</coordinates></Point></Placemark><Placemark><name>Ryde Judo Club</name><description><![CDATA[]]></description><Point><coordinates>-1.161966,50.729914</coordinates></Point></Placemark><Placemark><name>Scorpion Judo Club</name><description><![CDATA[]]></description><Point><coordinates>-1.5616608,51.1598698</coordinates></Point></Placemark><Placemark><name>Southampton University J.C</name><description><![CDATA[]]></description><Point><coordinates>-1.4002,50.9307</coordinates></Point></Placemark><Placemark><name>Southern Judokan Cowplain</name><description><![CDATA[]]></description><Point><coordinates>-1.014772,50.893469</coordinates></Point></Placemark><Placemark><name>Southern Judokan Bourne</name><description><![CDATA[]]></description><Point><coordinates>-0.9371971,50.8478106</coordinates></Point></Placemark><Placemark><name>Southern Judokan Rowlands Castle</name><description><![CDATA[]]></description><Point><coordinates>-0.965811,50.882137</coordinates></Point></Placemark><Placemark><name>Stamshaw School Judo</name><description><![CDATA[]]></description><Point><coordinates>-1.0805774,50.8201965</coordinates></Point></Placemark><Placemark><name>Summit Judo Club</name><description><![CDATA[]]></description><Point><coordinates>-1.0526527,51.2846488</coordinates></Point></Placemark><Placemark><name>Torakan Judo Club</name><description><![CDATA[]]></description><Point><coordinates>-2.1936913,49.1843798</coordinates></Point></Placemark><Placemark><name>Wimbourne School</name><description><![CDATA[]]></description><Point><coordinates>-1.0735694,50.7874037</coordinates></Point></Placemark><Placemark><name>Winchester Judo Club</name><description><![CDATA[]]></description><Point><coordinates>-1.316494,51.068964</coordinates></Point></Placemark><Placemark><name>Winchester College Judo Club</name><description><![CDATA[]]></description><Point><coordinates>-1.312632,51.058442</coordinates></Point></Placemark><Placemark><name>Widnes Judo Club</name><description><![CDATA[]]></description><Point><coordinates>-2.7328855,53.3621218</coordinates></Point></Placemark><Placemark><name>OKC Defensive Tactics Judo</name><description><![CDATA[]]></description><Point><coordinates>-97.4817743,35.6089244</coordinates></Point></Placemark><Placemark><name>Watanabe Kwai Judo Club</name><description><![CDATA[]]></description><Point><coordinates>-2.8409645,54.9307385</coordinates></Point></Placemark><Placemark><name>Bedminster Judokwai</name><description><![CDATA[]]></description><Point><coordinates>-2.5919023,51.4553129</coordinates></Point></Placemark><Placemark><name>Barnet Judo</name><description><![CDATA[]]></description><Point><coordinates>-0.2186881,51.667417</coordinates></Point></Placemark><Placemark><name>Bath Judo Club</name><description><![CDATA[]]></description><Point><coordinates>-2.344943,51.397774</coordinates></Point></Placemark><Placemark><name>Bath Judo Kwai</name><description><![CDATA[]]></description><Point><coordinates>-2.352875,51.3809</coordinates></Point></Placemark><Placemark><name>Shaftesbury Judo Club</name><description><![CDATA[]]></description><Point><coordinates>-2.196868,51.008215</coordinates></Point></Placemark><Placemark><name>Apollo Judo Club</name><description><![CDATA[]]></description><Point><coordinates>-2.516741,51.850827</coordinates></Point></Placemark><Placemark><name>Keisen Judo Club</name><description><![CDATA[]]></description><Point><coordinates>-0.005624,51.12642</coordinates></Point></Placemark><Placemark><name>EDGE Judo</name><description><![CDATA[]]></description><Point><coordinates>0.107459,51.754264</coordinates></Point></Placemark><Placemark><name>Encino Judo Club</name><description><![CDATA[]]></description><Point><coordinates>-119.187515,34.201044</coordinates></Point></Placemark><Placemark><name></name><description><![CDATA[]]></description><Point><coordinates>,</coordinates></Point></Placemark><Placemark><name>Redbridge Judo Club</name><description><![CDATA[]]></description><Point><coordinates>0.102809,51.572218</coordinates></Point></Placemark><Placemark><name>Judo Club Hajime</name><description><![CDATA[]]></description><Point><coordinates>1.5218156,42.5075314</coordinates></Point></Placemark><Placemark><name>Obukan Dojo</name><description><![CDATA[]]></description><Point><coordinates>-122.673168,45.569592</coordinates></Point></Placemark><Placemark><name>Coffs Harbour Judo Club</name><description><![CDATA[]]></description><Point><coordinates>153.113344,-30.281343</coordinates></Point></Placemark><Placemark><name>TSV Freudenstadt 1862 e.V.</name><description><![CDATA[]]></description><Point><coordinates>8.418993,48.468475</coordinates></Point></Placemark><Placemark><name>Burnaby Judo Club</name><description><![CDATA[]]></description><Point><coordinates>-122.996820,49.224083</coordinates></Point></Placemark><Placemark><name>Mudanshakwai Brechin Judo Club.</name><description><![CDATA[]]></description><Point><coordinates>-2.655028,56.730744</coordinates></Point></Placemark><Placemark><name>Combat Judo Academy</name><description><![CDATA[]]></description><Point><coordinates>-73.471391,40.677432</coordinates></Point></Placemark><Placemark><name>1. SC Gröbenzell</name><description><![CDATA[]]></description><Point><coordinates>11.382802,48.192097</coordinates></Point></Placemark><Placemark><name>Jigoro Kano Maastricht</name><description><![CDATA[]]></description><Point><coordinates>5.732385,50.840714</coordinates></Point></Placemark><Placemark><name>All Star Family Center</name><description><![CDATA[]]></description><Point><coordinates>-77.307572,25.025690</coordinates></Point></Placemark><Placemark><name>Ridgewood Judo</name><description><![CDATA[]]></description><Point><coordinates>-74.117310,40.981874</coordinates></Point></Placemark><Placemark><name>Portland Judo Club</name><description><![CDATA[]]></description><Point><coordinates>-1.135508,52.955942</coordinates></Point></Placemark><Placemark><name>Blau-Weiß Hollage</name><description><![CDATA[]]></description><Point><coordinates>7.978842,52.343625</coordinates></Point></Placemark><Placemark><name>Steveston Judo Club</name><description><![CDATA[]]></description><Point><coordinates>-123.177627,49.125938</coordinates></Point></Placemark><Placemark><name>SouthSide Dojo</name><description><![CDATA[]]></description><Point><coordinates>-85.561877,42.192694</coordinates></Point></Placemark><Placemark><name>Delta Kaigan Judo</name><description><![CDATA[]]></description><Point><coordinates>-122.935405,49.155234</coordinates></Point></Placemark><Placemark><name>Seinen Judo Club</name><description><![CDATA[]]></description><Point><coordinates>-122.908568,49.156364</coordinates></Point></Placemark><Placemark><name>Temecula Valley Judo</name><description><![CDATA[]]></description><Point><coordinates>-117.205002,33.555183</coordinates></Point></Placemark><Placemark><name>Tikkurilan Judokat</name><description><![CDATA[]]></description><Point><coordinates>25.029087,60.299360</coordinates></Point></Placemark><Placemark><name>TSV Unterhaching</name><description><![CDATA[]]></description><Point><coordinates>11.614780,48.060758</coordinates></Point></Placemark><Placemark><name>TSV Crailsheim</name><description><![CDATA[]]></description><Point><coordinates>10.036145,49.137656</coordinates></Point></Placemark><Placemark><name>San Francisco Judo Institute</name><description><![CDATA[]]></description><Point><coordinates>-122.493353,37.742430</coordinates></Point></Placemark><Placemark><name>Hendersons karate and Judo Academy</name><description><![CDATA[]]></description><Point><coordinates>-88.198242,40.279526</coordinates></Point></Placemark><Placemark><name>Judoclub Leipzig Nordanlage</name><description><![CDATA[]]></description><Point><coordinates>12.359619,51.261915</coordinates></Point></Placemark><Placemark><name>DJK Ingolstadt</name><description><![CDATA[]]></description><Point><coordinates>11.423196,48.746526</coordinates></Point></Placemark><Placemark><name>Silicon Valley Judo</name><description><![CDATA[]]></description><Point><coordinates>-121.904308,37.332736</coordinates></Point></Placemark><Placemark><name>DLT Welcome Mat Judo</name><description><![CDATA[]]></description><Point><coordinates>-94.331360,39.034120</coordinates></Point></Placemark><Placemark><name>Budo-Club Karlsruhe</name><description><![CDATA[]]></description><Point><coordinates>8.376861,49.012851</coordinates></Point></Placemark><Placemark><name>San Shi Judo Club</name><description><![CDATA[]]></description><Point><coordinates>-117.285115,33.187703</coordinates></Point></Placemark><Placemark><name>Judo Club Usurbil</name><description><![CDATA[]]></description><Point><coordinates>-2.050399,43.272354</coordinates></Point></Placemark><Placemark><name>Texas A and M University Judo</name><description><![CDATA[]]></description><Point><coordinates>-96.339798,30.611147</coordinates></Point></Placemark><Placemark><name>Gulf Coast Judo</name><description><![CDATA[]]></description><Point><coordinates>-88.775110,30.410634</coordinates></Point></Placemark><Placemark><name>WAT Stadlau</name><description><![CDATA[]]></description><Point><coordinates>16.436191,48.247140</coordinates></Point></Placemark><Placemark><name>Sportschool van de Pol</name><description><![CDATA[]]></description><Point><coordinates>5.663345,51.488946</coordinates></Point></Placemark><Placemark><name>Westlands Judo Club</name><description><![CDATA[]]></description><Point><coordinates>-2.164972,52.275274</coordinates></Point></Placemark><Placemark><name>Droitwich Spa Judo Kan</name><description><![CDATA[]]></description><Point><coordinates>-2.157322,52.260764</coordinates></Point></Placemark><Placemark><name>TuSG Ritterhude JUDO</name><description><![CDATA[]]></description><Point><coordinates>8.752515,53.179809</coordinates></Point></Placemark><Placemark><name>Wolverhampton Judo Club</name><description><![CDATA[]]></description><Point><coordinates>-2.089462,52.596375</coordinates></Point></Placemark><Placemark><name>Kyoudai Judo Wellington</name><description><![CDATA[]]></description><Point><coordinates>148.944638,-32.553338</coordinates></Point></Placemark><Placemark><name>Croydon Judo club</name><description><![CDATA[]]></description><Point><coordinates>-0.085466,51.381692</coordinates></Point></Placemark><Placemark><name>Judo Club Efringen-Kirchen e.V.</name><description><![CDATA[]]></description><Point><coordinates>7.558508,47.653363</coordinates></Point></Placemark><Placemark><name>University of Wolverhampton Judo Club</name><description><![CDATA[]]></description><Point><coordinates>-2.005005,52.576350</coordinates></Point></Placemark><Placemark><name>Budo Club Malsch e.V.</name><description><![CDATA[]]></description><Point><coordinates>8.325121,48.883794</coordinates></Point></Placemark><Placemark><name>Vale Judo Club</name><description><![CDATA[]]></description><Point><coordinates>-0.734389,52.678438</coordinates></Point></Placemark><Placemark><name>Warwick University Judo Club</name><description><![CDATA[]]></description><Point><coordinates>-1.560874,52.380682</coordinates></Point></Placemark><Placemark><name>1. Walsumer Judo-Club</name><description><![CDATA[]]></description><Point><coordinates>6.736153,51.533523</coordinates></Point></Placemark><Placemark><name>VdS Nievenheim - Judoabteilung</name><description><![CDATA[]]></description><Point><coordinates>6.780238,51.119095</coordinates></Point></Placemark><Placemark><name>Norwich Judo Dojo</name><description><![CDATA[]]></description><Point><coordinates>-72.102209,41.547805</coordinates></Point></Placemark><Placemark><name>Coventry Judo Club</name><description><![CDATA[]]></description><Point><coordinates>-1.593205,52.411981</coordinates></Point></Placemark><Placemark><name>The Budokwai</name><description><![CDATA[]]></description><Point><coordinates>-0.180564,51.486461</coordinates></Point></Placemark><Placemark><name>Phnom Penh Judo club</name><description><![CDATA[]]></description><Point><coordinates>104.909434,11.557693</coordinates></Point></Placemark><Placemark><name>Judo Tao</name><description><![CDATA[]]></description><Point><coordinates>2.098249,41.369426</coordinates></Point></Placemark><Placemark><name>Judo klub Dubrovnik</name><description><![CDATA[]]></description><Point><coordinates>18.088603,42.647060</coordinates></Point></Placemark><Placemark><name>Sale Judo club</name><description><![CDATA[]]></description><Point><coordinates>-2.317075,53.424680</coordinates></Point></Placemark><Placemark><name>Thai Japanese Stadium judo club</name><description><![CDATA[]]></description><Point><coordinates>100.552197,13.767272</coordinates></Point></Placemark><Placemark><name>swindon judo club</name><description><![CDATA[]]></description><Point><coordinates>-1.796265,51.549751</coordinates></Point></Placemark><Placemark><name>Judo Club Hajime Kerpen-Brüggen</name><description><![CDATA[]]></description><Point><coordinates>6.764574,50.850655</coordinates></Point></Placemark><Placemark><name>Hontai Judo Club</name><description><![CDATA[]]></description><Point><coordinates>25.019367,60.280132</coordinates></Point></Placemark><Placemark><name>Turun judoseura</name><description><![CDATA[]]></description><Point><coordinates>22.281175,60.465660</coordinates></Point></Placemark><Placemark><name>Chu To Bu West</name><description><![CDATA[]]></description><Point><coordinates>-81.988392,41.470773</coordinates></Point></Placemark><Placemark><name>JudoInside</name><description><![CDATA[]]></description><Point><coordinates>5.556850,52.004196</coordinates></Point></Placemark><Placemark><name>EJU</name><description><![CDATA[]]></description><Point><coordinates>14.520493,35.905181</coordinates></Point></Placemark><Placemark><name>Garioch Judo Club</name><description><![CDATA[]]></description><Point><coordinates>-2.182803,57.205897</coordinates></Point></Placemark><Placemark><name>Aberdeen Judo Club</name><description><![CDATA[]]></description><Point><coordinates>-2.079849,57.156029</coordinates></Point></Placemark><Placemark><name>Bellahouston Judo Club</name><description><![CDATA[]]></description><Point><coordinates>-4.249842,55.865993</coordinates></Point></Placemark><Placemark><name>Cluarankwai</name><description><![CDATA[]]></description><Point><coordinates>-4.483066,55.603554</coordinates></Point></Placemark><Placemark><name>Falu Judoklubb</name><description><![CDATA[]]></description><Point><coordinates>15.656900,60.617600</coordinates></Point></Placemark><Placemark><name>Forshaga Judoklubb</name><description><![CDATA[]]></description><Point><coordinates>13.486300,59.520900</coordinates></Point></Placemark><Placemark><name>Frölunda Judoklubb</name><description><![CDATA[]]></description><Point><coordinates>11.923100,57.644600</coordinates></Point></Placemark><Placemark><name>Frövi Judo</name><description><![CDATA[]]></description><Point><coordinates>15.355700,59.470100</coordinates></Point></Placemark><Placemark><name>Färgelanda Judoklubb</name><description><![CDATA[]]></description><Point><coordinates>12.060800,58.569700</coordinates></Point></Placemark><Placemark><name>GAK Enighet</name><description><![CDATA[]]></description><Point><coordinates>13.020700,55.587700</coordinates></Point></Placemark><Placemark><name>GF Idrott Judosektion</name><description><![CDATA[]]></description><Point><coordinates>12.840000,55.884500</coordinates></Point></Placemark><Placemark><name>Gribby Judo</name><description><![CDATA[]]></description><Point><coordinates>18.089200,59.462400</coordinates></Point></Placemark><Placemark><name>Grums Judoklubb</name><description><![CDATA[]]></description><Point><coordinates>13.105900,59.354200</coordinates></Point></Placemark><Placemark><name>Gullmarens Judoklubb</name><description><![CDATA[]]></description><Point><coordinates>11.426000,58.383300</coordinates></Point></Placemark><Placemark><name>Hammarö Judoklubb</name><description><![CDATA[]]></description><Point><coordinates>13.539700,59.304700</coordinates></Point></Placemark><Placemark><name>Habo Judoklubb</name><description><![CDATA[]]></description><Point><coordinates>14.099000,57.913900</coordinates></Point></Placemark><Placemark><name>Götene Judo</name><description><![CDATA[]]></description><Point><coordinates>13.477900,58.526800</coordinates></Point></Placemark><Placemark><name>Göteborgs Judoklubb</name><description><![CDATA[]]></description><Point><coordinates>11.940500,57.698600</coordinates></Point></Placemark><Placemark><name>Göteborg - JK Kano</name><description><![CDATA[]]></description><Point><coordinates>11.975500,57.698900</coordinates></Point></Placemark><Placemark><name>Gävle Tjäder</name><description><![CDATA[]]></description><Point><coordinates>17.116200,60.691400</coordinates></Point></Placemark><Placemark><name>Gävle Judo Club</name><description><![CDATA[]]></description><Point><coordinates>17.175200,60.659400</coordinates></Point></Placemark><Placemark><name>Gustafs JK</name><description><![CDATA[]]></description><Point><coordinates>15.597400,60.402300</coordinates></Point></Placemark><Placemark><name>Falkenbergs Judoklubb</name><description><![CDATA[]]></description><Point><coordinates>12.471400,56.897500</coordinates></Point></Placemark><Placemark><name>Fagersta Judoklubb</name><description><![CDATA[]]></description><Point><coordinates>15.808400,60.000600</coordinates></Point></Placemark><Placemark><name>Eskilstuna Judoklubb</name><description><![CDATA[]]></description><Point><coordinates>16.509800,59.373800</coordinates></Point></Placemark><Placemark><name>Carlshamn Judo</name><description><![CDATA[]]></description><Point><coordinates>14.865400,56.170200</coordinates></Point></Placemark><Placemark><name>Ekerö Judoklubb</name><description><![CDATA[]]></description><Point><coordinates>17.716500,59.288300</coordinates></Point></Placemark><Placemark><name>Bålsta Judoklubb</name><description><![CDATA[]]></description><Point><coordinates>17.538700,59.560200</coordinates></Point></Placemark><Placemark><name>Budoklubben Yoi</name><description><![CDATA[]]></description><Point><coordinates>13.878100,57.915400</coordinates></Point></Placemark><Placemark><name>Borås Judoklubb</name><description><![CDATA[]]></description><Point><coordinates>12.931500,57.720100</coordinates></Point></Placemark><Placemark><name>Borlänge Judo Club</name><description><![CDATA[]]></description><Point><coordinates>15.404300,60.472600</coordinates></Point></Placemark><Placemark><name>Helsingborgs Judoklubb</name><description><![CDATA[]]></description><Point><coordinates>12.704700,56.052700</coordinates></Point></Placemark><Placemark><name>Hudiksvalls Judoklubb</name><description><![CDATA[]]></description><Point><coordinates>17.109900,61.717300</coordinates></Point></Placemark><Placemark><name>Hunnebo Judo</name><description><![CDATA[]]></description><Point><coordinates>11.298900,58.435000</coordinates></Point></Placemark><Placemark><name>Högdalens Judoklubb</name><description><![CDATA[]]></description><Point><coordinates>18.041700,59.264400</coordinates></Point></Placemark><Placemark><name>IF Aktiv Ungdom i Lidingö</name><description><![CDATA[]]></description><Point><coordinates>18.156800,59.374200</coordinates></Point></Placemark><Placemark><name>IF Järfälla Judo</name><description><![CDATA[]]></description><Point><coordinates>17.838100,59.417100</coordinates></Point></Placemark><Placemark><name>IK Södra Judo, Farstahallen</name><description><![CDATA[]]></description><Point><coordinates>18.084900,59.239300</coordinates></Point></Placemark><Placemark><name>IK Södra Judo, Skarpnäck</name><description><![CDATA[]]></description><Point><coordinates>18.143400,59.267400</coordinates></Point></Placemark><Placemark><name>IK Södra Judo, Torvallahallen</name><description><![CDATA[]]></description><Point><coordinates>18.155900,59.166100</coordinates></Point></Placemark><Placemark><name>IK Västra Mölndal</name><description><![CDATA[]]></description><Point><coordinates>11.991600,57.661600</coordinates></Point></Placemark><Placemark><name>JK Jinkei</name><description><![CDATA[]]></description><Point><coordinates>12.002300,57.729900</coordinates></Point></Placemark><Placemark><name>Jordbro Judo club</name><description><![CDATA[]]></description><Point><coordinates>18.139800,59.138200</coordinates></Point></Placemark><Placemark><name>Judo Club Sundsvall</name><description><![CDATA[]]></description><Point><coordinates>17.340200,62.396200</coordinates></Point></Placemark><Placemark><name>Judoklubben Budo</name><description><![CDATA[]]></description><Point><coordinates>11.954400,57.742300</coordinates></Point></Placemark><Placemark><name>Judoklubben Jigo-Tai</name><description><![CDATA[]]></description><Point><coordinates>13.942700,56.825800</coordinates></Point></Placemark><Placemark><name>Judoklubben Ki</name><description><![CDATA[]]></description><Point><coordinates>11.898100,57.659200</coordinates></Point></Placemark><Placemark><name>Judoklubben National</name><description><![CDATA[]]></description><Point><coordinates>12.869500,56.690000</coordinates></Point></Placemark><Placemark><name>Järfälla Budoklubb</name><description><![CDATA[]]></description><Point><coordinates>17.834900,59.427000</coordinates></Point></Placemark><Placemark><name>Jönköpings Judoklubb</name><description><![CDATA[]]></description><Point><coordinates>14.206600,57.782400</coordinates></Point></Placemark><Placemark><name>Kallinge Judoclub</name><description><![CDATA[]]></description><Point><coordinates>15.273400,56.203300</coordinates></Point></Placemark><Placemark><name>Kalmar Budoklubb</name><description><![CDATA[]]></description><Point><coordinates>16.349300,56.668000</coordinates></Point></Placemark><Placemark><name>Kampsportscentrums Judosektion</name><description><![CDATA[]]></description><Point><coordinates>12.312700,58.380300</coordinates></Point></Placemark><Placemark><name>Kampsportsklubben Mifune</name><description><![CDATA[]]></description><Point><coordinates>15.164500,59.275300</coordinates></Point></Placemark><Placemark><name>Karlskoga Budoklubb</name><description><![CDATA[]]></description><Point><coordinates>14.535600,59.328100</coordinates></Point></Placemark><Placemark><name>Karlskrona Judoklubb</name><description><![CDATA[]]></description><Point><coordinates>15.565200,56.161200</coordinates></Point></Placemark><Placemark><name>Karlstad Judoklubb</name><description><![CDATA[]]></description><Point><coordinates>13.513300,59.390200</coordinates></Point></Placemark><Placemark><name>Kitana Judoklubb</name><description><![CDATA[]]></description><Point><coordinates>18.309300,59.478500</coordinates></Point></Placemark><Placemark><name>Knivsta Judoklubb</name><description><![CDATA[]]></description><Point><coordinates>17.787800,59.726700</coordinates></Point></Placemark><Placemark><name>Kristianstad Judoklubb</name><description><![CDATA[]]></description><Point><coordinates>14.150700,56.023300</coordinates></Point></Placemark><Placemark><name>Kristinehamns Judoklubb</name><description><![CDATA[]]></description><Point><coordinates>14.100100,59.317200</coordinates></Point></Placemark><Placemark><name>Kungsbacka Judoklubb</name><description><![CDATA[]]></description><Point><coordinates>12.076100,57.482300</coordinates></Point></Placemark><Placemark><name>Källan i Finspång</name><description><![CDATA[]]></description><Point><coordinates>15.808400,58.714200</coordinates></Point></Placemark><Placemark><name>Köpings Judoklubb</name><description><![CDATA[]]></description><Point><coordinates>15.993500,59.518000</coordinates></Point></Placemark><Placemark><name>Landvetter Judoklubb</name><description><![CDATA[]]></description><Point><coordinates>12.207500,57.695000</coordinates></Point></Placemark><Placemark><name>Lerums Judoklubb</name><description><![CDATA[]]></description><Point><coordinates>12.309200,57.792500</coordinates></Point></Placemark><Placemark><name>Lidköpings Budoklubb</name><description><![CDATA[]]></description><Point><coordinates>13.147200,58.496200</coordinates></Point></Placemark><Placemark><name>Lilla Edets Judoklubb</name><description><![CDATA[]]></description><Point><coordinates>12.106700,58.142200</coordinates></Point></Placemark><Placemark><name>Lindome Judoklubb</name><description><![CDATA[]]></description><Point><coordinates>12.042000,57.606700</coordinates></Point></Placemark><Placemark><name>Linköping Judo</name><description><![CDATA[]]></description><Point><coordinates>15.634700,58.411700</coordinates></Point></Placemark><Placemark><name>Ljusdals Judo Club</name><description><![CDATA[]]></description><Point><coordinates>16.088200,61.828000</coordinates></Point></Placemark><Placemark><name>Ludvika Judoklubb</name><description><![CDATA[]]></description><Point><coordinates>15.178600,60.124400</coordinates></Point></Placemark><Placemark><name>Lugi Judoklubb</name><description><![CDATA[]]></description><Point><coordinates>13.177600,55.703900</coordinates></Point></Placemark><Placemark><name>Luleå Judoklubb</name><description><![CDATA[]]></description><Point><coordinates>22.150400,65.587800</coordinates></Point></Placemark><Placemark><name>Långshyttans Judoklubb</name><description><![CDATA[]]></description><Point><coordinates>16.026700,60.446900</coordinates></Point></Placemark><Placemark><name>Malmö Budokan Judoklubb</name><description><![CDATA[]]></description><Point><coordinates>13.000100,55.597400</coordinates></Point></Placemark><Placemark><name>Mariestads Judoklubb</name><description><![CDATA[]]></description><Point><coordinates>13.821900,58.695500</coordinates></Point></Placemark><Placemark><name>Molkom Judoklubb</name><description><![CDATA[]]></description><Point><coordinates>13.724900,59.604600</coordinates></Point></Placemark><Placemark><name>Märsta Judoklubb</name><description><![CDATA[]]></description><Point><coordinates>17.826600,59.617700</coordinates></Point></Placemark><Placemark><name>Mölndals Judoklubb</name><description><![CDATA[]]></description><Point><coordinates>11.991600,57.661600</coordinates></Point></Placemark><Placemark><name>Mölntorps IK Judo</name><description><![CDATA[]]></description><Point><coordinates>16.226500,59.615700</coordinates></Point></Placemark><Placemark><name>Nacka Judoklubb</name><description><![CDATA[]]></description><Point><coordinates>18.153000,59.310600</coordinates></Point></Placemark><Placemark><name>Norrköpings judoklubb</name><description><![CDATA[]]></description><Point><coordinates>16.135400,58.597600</coordinates></Point></Placemark><Placemark><name>Norrtälje Judoklubb</name><description><![CDATA[]]></description><Point><coordinates>18.720800,59.765300</coordinates></Point></Placemark><Placemark><name>Nybro Ju-jutsu och Judo</name><description><![CDATA[]]></description><Point><coordinates>15.905500,56.744000</coordinates></Point></Placemark><Placemark><name>Nyköpings judoklubb</name><description><![CDATA[]]></description><Point><coordinates>17.043400,58.750200</coordinates></Point></Placemark><Placemark><name>Olofströms Judoklubb</name><description><![CDATA[]]></description><Point><coordinates>14.530400,56.270600</coordinates></Point></Placemark><Placemark><name>Oxelösunds Judoklubb</name><description><![CDATA[]]></description><Point><coordinates>17.080700,58.674000</coordinates></Point></Placemark><Placemark><name>Perstorps Budoklubb</name><description><![CDATA[]]></description><Point><coordinates>13.394800,56.138300</coordinates></Point></Placemark><Placemark><name>Piteå Judoklubb</name><description><![CDATA[]]></description><Point><coordinates>21.483200,65.326600</coordinates></Point></Placemark><Placemark><name>Rimbo Judoklubb</name><description><![CDATA[]]></description><Point><coordinates>18.357900,59.742400</coordinates></Point></Placemark><Placemark><name>Rättviks Judoklubb</name><description><![CDATA[]]></description><Point><coordinates>15.146800,60.895800</coordinates></Point></Placemark><Placemark><name>Sakura Judoklubb</name><description><![CDATA[]]></description><Point><coordinates>12.028100,57.737200</coordinates></Point></Placemark><Placemark><name>Saltsjö Judoklubb</name><description><![CDATA[]]></description><Point><coordinates>18.395500,59.335800</coordinates></Point></Placemark><Placemark><name>Seiryoku Zenyo Judo</name><description><![CDATA[]]></description><Point><coordinates>16.602800,59.918200</coordinates></Point></Placemark><Placemark><name>Sigtuna Budoklubb</name><description><![CDATA[]]></description><Point><coordinates>17.725400,59.621200</coordinates></Point></Placemark><Placemark><name>Skellefteå Judoklubb</name><description><![CDATA[]]></description><Point><coordinates>20.970100,64.755100</coordinates></Point></Placemark><Placemark><name>Skövde Judoklubb</name><description><![CDATA[]]></description><Point><coordinates>13.836700,58.383900</coordinates></Point></Placemark><Placemark><name>Solna Judoklubb</name><description><![CDATA[]]></description><Point><coordinates>17.988900,59.356000</coordinates></Point></Placemark><Placemark><name>Staffanstorps Judoklubb</name><description><![CDATA[]]></description><Point><coordinates>13.215700,55.635700</coordinates></Point></Placemark><Placemark><name>Stenungsunds Judoklubb</name><description><![CDATA[]]></description><Point><coordinates>11.827200,58.056700</coordinates></Point></Placemark><Placemark><name>Stockholms Judo Dojo</name><description><![CDATA[]]></description><Point><coordinates>18.035400,59.340800</coordinates></Point></Placemark><Placemark><name>Stockholms Judoklubb</name><description><![CDATA[]]></description><Point><coordinates>18.014900,59.303600</coordinates></Point></Placemark><Placemark><name>Stockholms Polisens IF Judosektionen</name><description><![CDATA[]]></description><Point><coordinates>18.013200,59.301400</coordinates></Point></Placemark><Placemark><name>Storfors Judoklubb</name><description><![CDATA[]]></description><Point><coordinates>14.279300,59.543200</coordinates></Point></Placemark><Placemark><name>Söderhamns Judoklubb</name><description><![CDATA[]]></description><Point><coordinates>17.069000,61.307700</coordinates></Point></Placemark><Placemark><name>Söderköpings Judoklubb</name><description><![CDATA[]]></description><Point><coordinates>16.309100,58.477800</coordinates></Point></Placemark><Placemark><name>Södertälje Judoklubb</name><description><![CDATA[]]></description><Point><coordinates>17.663600,59.204100</coordinates></Point></Placemark><Placemark><name>Takedown Judo</name><description><![CDATA[]]></description><Point><coordinates>13.017200,55.588000</coordinates></Point></Placemark><Placemark><name>Tierps Judoklubb</name><description><![CDATA[]]></description><Point><coordinates>17.508600,60.348600</coordinates></Point></Placemark><Placemark><name>Trelleborgs Budo Kai</name><description><![CDATA[]]></description><Point><coordinates>13.152900,55.384200</coordinates></Point></Placemark><Placemark><name>Tumba Judoklubb</name><description><![CDATA[]]></description><Point><coordinates>17.833600,59.201800</coordinates></Point></Placemark><Placemark><name>Tyresö Judo  and  Jujutsuklubb</name><description><![CDATA[]]></description><Point><coordinates>18.207300,59.220800</coordinates></Point></Placemark><Placemark><name>Uddevalla Judoklubb</name><description><![CDATA[]]></description><Point><coordinates>11.957400,58.345500</coordinates></Point></Placemark><Placemark><name>Umeå Judoklubb</name><description><![CDATA[]]></description><Point><coordinates>20.286200,63.828700</coordinates></Point></Placemark><Placemark><name>Upplands Väsby Judoklubb</name><description><![CDATA[]]></description><Point><coordinates>17.899500,59.517300</coordinates></Point></Placemark><Placemark><name>Uppsala Judoklubb</name><description><![CDATA[]]></description><Point><coordinates>17.623300,59.870500</coordinates></Point></Placemark><Placemark><name>Varbergs Judoklubb</name><description><![CDATA[]]></description><Point><coordinates>12.254800,57.099700</coordinates></Point></Placemark><Placemark><name>Vilhelmina Judoklubb</name><description><![CDATA[]]></description><Point><coordinates>16.673900,64.617500</coordinates></Point></Placemark><Placemark><name>Vällingby Budoklubb</name><description><![CDATA[]]></description><Point><coordinates>17.880500,59.364300</coordinates></Point></Placemark><Placemark><name>Västbo Judoklubb</name><description><![CDATA[]]></description><Point><coordinates>13.536200,57.305100</coordinates></Point></Placemark><Placemark><name>Västerviks Judoklubb</name><description><![CDATA[]]></description><Point><coordinates>16.621600,57.754300</coordinates></Point></Placemark><Placemark><name>Västerås Judoklubb</name><description><![CDATA[]]></description><Point><coordinates>16.608600,59.614100</coordinates></Point></Placemark><Placemark><name>Västerås Judoskola</name><description><![CDATA[]]></description><Point><coordinates>16.539000,59.606700</coordinates></Point></Placemark><Placemark><name>Växjö Judoklubb</name><description><![CDATA[]]></description><Point><coordinates>14.763400,56.887400</coordinates></Point></Placemark><Placemark><name>Ystad Budoclub</name><description><![CDATA[]]></description><Point><coordinates>13.834000,55.437400</coordinates></Point></Placemark><Placemark><name>Ånge Judoklubb</name><description><![CDATA[]]></description><Point><coordinates>15.657200,62.518900</coordinates></Point></Placemark><Placemark><name>Åtvidabergs Judoklubb</name><description><![CDATA[]]></description><Point><coordinates>16.003100,58.196500</coordinates></Point></Placemark><Placemark><name>Älmhults Judoklubb</name><description><![CDATA[]]></description><Point><coordinates>14.156600,56.552800</coordinates></Point></Placemark><Placemark><name>Ängelholm Judo</name><description><![CDATA[]]></description><Point><coordinates>12.856900,56.248300</coordinates></Point></Placemark><Placemark><name>Örebro Judo</name><description><![CDATA[]]></description><Point><coordinates>15.215400,59.279000</coordinates></Point></Placemark><Placemark><name>Östersunds Judoklubb</name><description><![CDATA[]]></description><Point><coordinates>14.654600,63.189200</coordinates></Point></Placemark><Placemark><name>BOO KFUM</name><description><![CDATA[]]></description><Point><coordinates>18.272700,59.332100</coordinates></Point></Placemark><Placemark><name>Bollnäs JK</name><description><![CDATA[]]></description><Point><coordinates>16.386400,61.349400</coordinates></Point></Placemark><Placemark><name>Boden Bushido Center</name><description><![CDATA[]]></description><Point><coordinates>21.698100,65.831900</coordinates></Point></Placemark><Placemark><name>Arboga Judoklubb</name><description><![CDATA[]]></description><Point><coordinates>15.838800,59.395200</coordinates></Point></Placemark><Placemark><name>Alingsås Judoklubb</name><description><![CDATA[]]></description><Point><coordinates>12.532600,57.940000</coordinates></Point></Placemark><Placemark><name>Shoorikan Judô Club</name><description><![CDATA[]]></description><Point><coordinates>-46.636405,-23.589200</coordinates></Point></Placemark><Placemark><name>Midwest Judo/Jui Jitsu</name><description><![CDATA[]]></description><Point><coordinates>-87.986069,41.743140</coordinates></Point></Placemark><Placemark><name>Dallas Kenpo</name><description><![CDATA[]]></description><Point><coordinates>-96.871201,32.854318</coordinates></Point></Placemark><Placemark><name>Diamond Valley Judo Centre</name><description><![CDATA[]]></description><Point><coordinates>145.092144,-37.702837</coordinates></Point></Placemark><Placemark><name>Ray Stevens Judo - Blossom Hse Dojo</name><description><![CDATA[]]></description><Point><coordinates>-0.228353,51.416686</coordinates></Point></Placemark><Placemark><name>Ray Stevens Judo - Oberon Dojo</name><description><![CDATA[]]></description><Point><coordinates>-0.241914,51.417007</coordinates></Point></Placemark><Placemark><name>JudoGoes</name><description><![CDATA[]]></description><Point><coordinates>3.894653,51.495065</coordinates></Point></Placemark><Placemark><name>Judo Condal</name><description><![CDATA[]]></description><Point><coordinates>2.1462362,41.3767236</coordinates></Point></Placemark><Placemark><name>Budokan Judo Club Australia</name><description><![CDATA[]]></description><Point><coordinates>150.985317,-33.726468</coordinates></Point></Placemark><Placemark><name>Kokoro Dojo</name><description><![CDATA[]]></description><Point><coordinates>-97.766889,30.239850</coordinates></Point></Placemark><Placemark><name>Round Rock Martial Arts</name><description><![CDATA[]]></description><Point><coordinates>-97.686476,30.500913</coordinates></Point></Placemark><Placemark><name>Australian National University Judo Club</name><description><![CDATA[]]></description><Point><coordinates>149.121037,-35.276316</coordinates></Point></Placemark><Placemark><name>Judo Club Usurbil</name><description><![CDATA[]]></description><Point><coordinates>,</coordinates></Point></Placemark><Placemark><name>Club de Judo Vallée-du-Richelieu</name><description><![CDATA[]]></description><Point><coordinates>-73.184352,45.568646</coordinates></Point></Placemark><Placemark><name>Bayford Judo Club</name><description><![CDATA[]]></description><Point><coordinates>-0.103340,51.758065</coordinates></Point></Placemark><Placemark><name>TSV Hagen 1860 e.V. Judoabteilung</name><description><![CDATA[]]></description><Point><coordinates>7.470703,51.334044</coordinates></Point></Placemark><Placemark><name>TuS Syke e.V.</name><description><![CDATA[]]></description><Point><coordinates>8.818844,52.910534</coordinates></Point></Placemark><Placemark><name>MTV Obernkirchen</name><description><![CDATA[]]></description><Point><coordinates>9.126785,52.263863</coordinates></Point></Placemark><Placemark><name>Migoto Judo Dojo</name><description><![CDATA[]]></description><Point><coordinates>-117.032418,32.675145</coordinates></Point></Placemark><Placemark><name>JC Raika Kirchberg</name><description><![CDATA[]]></description><Point><coordinates>12.318742,47.443647</coordinates></Point></Placemark><Placemark><name>Judokampfgemeinschaft Hellweg Unna</name><description><![CDATA[]]></description><Point><coordinates>7.673821,51.533763</coordinates></Point></Placemark><Placemark><name>Parkwood Judo Club</name><description><![CDATA[]]></description><Point><coordinates>0.590730,51.341960</coordinates></Point></Placemark><Placemark><name>Judo des allgemeinen Hochschulsports Dortmund</name><description><![CDATA[]]></description><Point><coordinates>7.416576,51.489634</coordinates></Point></Placemark><Placemark><name>Torquay Judokwai</name><description><![CDATA[]]></description><Point><coordinates>-3.542662,50.487030</coordinates></Point></Placemark><Placemark><name>UBC Judo </name><description><![CDATA[]]></description><Point><coordinates>-123.248762,49.268466</coordinates></Point></Placemark><Placemark><name>Abbotsford Judo Club</name><description><![CDATA[]]></description><Point><coordinates>-122.354133,49.053430</coordinates></Point></Placemark><Placemark><name>Dundee Ippon Judo Club</name><description><![CDATA[]]></description><Point><coordinates>-2.872238,56.476127</coordinates></Point></Placemark><Placemark><name>PowerSource Martial Arts</name><description><![CDATA[]]></description><Point><coordinates>-87.665374,41.561460</coordinates></Point></Placemark><Placemark><name>New Westminster Judo Club</name><description><![CDATA[]]></description><Point><coordinates>-122.906260,49.221118</coordinates></Point></Placemark></Document></kml>